"","CASE_NBR","CREATED","CLOSED","STATUS","SUBJECT","REASON","TYPE","DESCRIPTION","LOCATION","ZIPCODE","address","LAT","LON"
"1",31396046,"1/1/2016 12:43:03 PM","","Open","311 Service Request","Code - Zoning","Business Area Not Zoned","Business Area Not Zoned","7865 SUNRISE MIST WAY, Sacramento, CA",95828,"7865 SUNRISE MIST WAY, Sacramento, CA, 95828",38.471888,-121.398979
"2",31396161,"1/1/2016 4:30:33 PM","","Open","Open311","Remote Device","Code violation","Zoning violations - 101548","8100 OAHU DR, Sacramento, CA",95628,"8100 OAHU DR, Sacramento, CA, 95628",38.661038,-121.262131
"4",31396270,"1/2/2016 9:43:36 AM","","Open","311 Service Request","Code - Zoning","Business Area Not Zoned","Business Area Not Zoned","6301 CLAUSSEN WAY, Sacramento, CA",95660,"6301 CLAUSSEN WAY, Sacramento, CA, 95660",38.681443,-121.374271
"5",31396286,"1/2/2016 12:11:09 PM","","Open","311 Service Request","Code - Zoning","Private Property - Animals","Private Property - Animal","7540 DELTA POINTE WAY, Sacramento, CA",95823,"7540 DELTA POINTE WAY, Sacramento, CA, 95823",38.4841,-121.432273
"6",31396301,"1/2/2016 2:00:39 PM","","Open","Open311","Remote Device","Code violation","Zoning violations - 101647","5685 SAMPSON BLVD, Sacramento, CA",95824,"5685 SAMPSON BLVD, Sacramento, CA, 95824",38.522402,-121.449537
"7",31396402,"1/3/2016 10:55:38 AM","","Open","311 Service Request","Code - Zoning","Private Property - Vehicles","Private Property - Vehicle","6633 CHERRY LN, Sacramento, CA",95673,"6633 CHERRY LN, Sacramento, CA, 95673",38.687388,-121.443875
"8",31396405,"1/3/2016 11:38:25 AM","","Open","311 Service Request","Code - Zoning","Transient Complaints","Transient Complaints","6427 DALLAS WAY, Sacramento, CA",95823,"6427 DALLAS WAY, Sacramento, CA, 95823",38.508529,-121.437206
"9",31396419,"1/3/2016 1:25:15 PM","","Open","311 Service Request","Code - Zoning","Zoning - Private Property Complaints","Private Property Complaints","5301 VALPARAISO CIR, Sacramento, CA",95841,"5301 VALPARAISO CIR, Sacramento, CA, 95841",38.678339,-121.339986
"10",31396420,"1/3/2016 1:31:18 PM","","Open","311 Service Request","Transportation","Street Light Complaints","Street Light Complaints","3229 DEODAR ST, Sacramento, CA",95608,"3229 DEODAR ST, Sacramento, CA, 95608",38.623268,-121.31855
"11",31396484,"1/3/2016 5:11:33 PM","","Open","Open311","Remote Device","Other","Other - 101755","4043 EDISON AVE, Sacramento, CA",95821,"4043 EDISON AVE, Sacramento, CA, 95821",38.634247,-121.370274
"12",31396596,"1/4/2016 8:12:28 AM","","Open","311 Service Request","Code - Zoning","Zoning - Private Property Complaints","Private Property Complaints","4400 SHANDWICK DR, Sacramento, CA",95843,"4400 SHANDWICK DR, Sacramento, CA, 95843",38.716589,-121.361909
"13",31396612,"1/4/2016 8:21:28 AM","","Open","Open311","Remote Device","Illegal dumping","Illegal dumping - 101807","4047 43RD ST, Sacramento, CA",95820,"4047 43RD ST, Sacramento, CA, 95820",38.537672,-121.456444
"14",31396647,"1/4/2016 8:39:46 AM","","Open","311 Service Request","Code - Zoning","Private Property - Vehicles","Private Property - Vehicle","9121 REDWATER DR, Sacramento, CA",95843,"9121 REDWATER DR, Sacramento, CA, 95843",38.726109,-121.375566
"16",31396742,"1/4/2016 9:20:05 AM","","Open","311 Service Request","Code - Housing","Sub-Standard Housing Complaints","Sub-Standard Housing Complaints","5545 SKY PKWY,Unit 156, Sacramento, CA",95823,"5545 SKY PKWY,Unit 156, Sacramento, CA, 95823",38.502191,-121.436639
"17",31396780,"1/4/2016 9:40:56 AM","","Open","311 Service Request","Code - Housing","Sub-Standard Housing Complaints","Sub-Standard Housing Complaints","3541 WHITNEY AVE,Unit 214, Sacramento, CA",95821,"3541 WHITNEY AVE,Unit 214, Sacramento, CA, 95821",38.628722,-121.381028
"18",31396828,"1/4/2016 10:02:50 AM","","Open","311 Service Request","Code - Abandon Vehicles","Abandoned Vehicles","Abandoned Vehicle","5845 SHENANDOAH DR, Sacramento, CA",95841,"5845 SHENANDOAH DR, Sacramento, CA, 95841",38.672582,-121.339538
"19",31396950,"1/4/2016 11:14:46 AM","","Open","311 Service Request","Code - Housing","Sub-Standard Housing Complaints","Sub-Standard Housing Complaints","3631 BELLINGER CT, Sacramento, CA",95660,"3631 BELLINGER CT, Sacramento, CA, 95660",38.655166,-121.378829
"20",31396980,"1/4/2016 11:31:17 AM","","Open","Open311","Remote Device","Code violation","Zoning violations - 101840","3530 BODEGA CT, Sacramento, CA",95864,"3530 BODEGA CT, Sacramento, CA, 95864",38.585123,-121.381586
"21",31397018,"1/4/2016 11:51:41 AM","","Open","Open311","Remote Device","Code violation","Zoning violations - 101844","2438 LOMA VISTA DR, Sacramento, CA",95825,"2438 LOMA VISTA DR, Sacramento, CA, 95825",38.609308,-121.399686
"22",31397046,"1/4/2016 12:02:39 PM","","Open","311 Service Request","Code - Zoning","Zoning - Private Property Complaints","Private Property Complaints","3669 MYRTLE AVE, Sacramento, CA",95660,"3669 MYRTLE AVE, Sacramento, CA, 95660",38.654151,-121.379315
"23",31397102,"1/4/2016 12:28:10 PM","","Open","311 Service Request","Code - Housing","Emergency Housing Conditions","Emergency Housing Condition","2978 WRIGHT ST, Sacramento, CA",95821,"2978 WRIGHT ST, Sacramento, CA, 95821",38.619502,-121.405978
"24",31397479,"1/4/2016 3:52:46 PM","","Open","311 Service Request","Code - Zoning","Zoning - Private Property Complaints","Private Property Complaints","7736 WACHTEL WAY, Sacramento, CA",95662,"7736 WACHTEL WAY, Sacramento, CA, 95662",38.706559,-121.244287
"25",31397638,"1/4/2016 5:59:29 PM","","Open","311 Service Request","Code - Zoning","Zoning - Private Property Complaints","Private Property Complaints","9824 SPRING ST, Sacramento, CA",95632,"9824 SPRING ST, Sacramento, CA, 95632",38.283605,-121.33144
"26",31397849,"1/5/2016 8:55:50 AM","","Open","311 Service Request","Code - Housing","Sub-Standard Housing Complaints","Sub-Standard Housing Complaints","2978 WRIGHT ST, Sacramento, CA",95821,"2978 WRIGHT ST, Sacramento, CA, 95821",38.619502,-121.405978
"28",31397957,"1/5/2016 9:56:42 AM","","Open","311 Service Request","Transportation","Encroachment Violation","Encroachment Violation","1701 ADONIS WAY, Sacramento, CA",95864,"1701 ADONIS WAY, Sacramento, CA, 95864",38.595439,-121.356719
"29",31398092,"1/5/2016 11:02:54 AM","","Open","311 Service Request","Code - Housing","Sub-Standard Housing Complaints","Sub-Standard Housing Complaints","4701 16TH AVE, Sacramento, CA",95820,"4701 16TH AVE, Sacramento, CA, 95820",38.537908,-121.45155
"31",31398109,"1/5/2016 11:10:31 AM","","Open","311 Service Request","Code - Zoning","Zoning - Private Property Complaints","Private Property Complaints","5440 COLLEGE OAK DR, Sacramento, CA",95841,"5440 COLLEGE OAK DR, Sacramento, CA, 95841",38.665959,-121.350439
"32",31398298,"1/5/2016 12:56:41 PM","","Open","311 Service Request","Transportation","Median Right of Way Landscape Complaints","Median Right of Way Landscape Complaints","7109 STANFORD OAK DR, Sacramento, CA",95842,"7109 STANFORD OAK DR, Sacramento, CA, 95842",38.69492,-121.328971
"33",31398429,"1/5/2016 2:02:36 PM","","Open","311 Service Request","Code - Housing","Sub-Standard Housing Complaints","Sub-Standard Housing Complaints","2229 EDISON AVE, Sacramento, CA",95821,"2229 EDISON AVE, Sacramento, CA, 95821",38.622668,-121.41277
"34",31398518,"1/5/2016 2:57:21 PM","","Open","311 Service Request","Code - Zoning","Private Property - Vehicles","Private Property - Vehicle","7725 VICTORY AVE, Sacramento, CA",95828,"7725 VICTORY AVE, Sacramento, CA, 95828",38.472023,-121.414162
"35",31398646,"1/5/2016 4:11:15 PM","","Open","311 Service Request","Code - Zoning","Transient Complaints","Transient Complaints","4794 MANZANITA AVE,Unit 1, Sacramento, CA",95608,"4794 MANZANITA AVE,Unit 1, Sacramento, CA, 95608",38.651009,-121.327571
"36",31398751,"1/5/2016 5:47:25 PM","","Open","311 Service Request","Code - Zoning","Zoning - Private Property Complaints","Private Property Complaints","2279 HURLEY WAY, Sacramento, CA",95825,"2279 HURLEY WAY, Sacramento, CA, 95825",38.588845,-121.41166
"37",31398791,"1/5/2016 8:57:31 PM","","Open","311 Service Request","Transportation","Street Light Complaints","Street Light Complaints","5948 CLOVER MANOR WAY, Sacramento, CA",95824,"5948 CLOVER MANOR WAY, Sacramento, CA, 95824",38.517697,-121.44661
"38",31398794,"1/5/2016 9:06:16 PM","","Open","311 Service Request","Code - Zoning","Zoning - Private Property Complaints","Private Property Complaints","6729 FAIR OAKS BLVD, Sacramento, CA",95608,"6729 FAIR OAKS BLVD, Sacramento, CA, 95608",38.622338,-121.328551
"39",31398922,"1/6/2016 9:17:19 AM","","Open","311 Service Request","Code - Zoning","Private Property - Vehicles","Private Property - Vehicle","4519 RUDDY CT, Sacramento, CA",95842,"4519 RUDDY CT, Sacramento, CA, 95842",38.691415,-121.358643
"40",31399168,"1/6/2016 11:57:17 AM","","Open","311 Service Request","Code - Zoning","Private Property - Vehicles","Private Property - Vehicle","4340 ALSACE CT, Sacramento, CA",95628,"4340 ALSACE CT, Sacramento, CA, 95628",38.644178,-121.284238
"41",31399176,"1/6/2016 12:00:04 PM","","Open","311 Service Request","Code - Zoning","Private Property - Vehicles","Private Property - Vehicle","4340 ALSACE CT, Sacramento, CA",95628,"4340 ALSACE CT, Sacramento, CA, 95628",38.644178,-121.284238
"42",31399192,"1/6/2016 12:12:28 PM","","Open","311 Service Request","Code - Zoning","Zoning - Private Property Complaints","Private Property Complaints","4340 ALSACE CT, Sacramento, CA",95628,"4340 ALSACE CT, Sacramento, CA, 95628",38.644178,-121.284238
"43",31399314,"1/6/2016 1:22:16 PM","","Open","311 Service Request","Code - Housing","Emergency Housing Conditions","Emergency Housing Condition","4545 SYCAMORE AVE, Sacramento, CA",95841,"4545 SYCAMORE AVE, Sacramento, CA, 95841",38.648131,-121.353565
"44",31399350,"1/6/2016 1:43:19 PM","","Open","311 Service Request","Code - Zoning","Private Property - Vehicles","Private Property - Vehicle","4605 PASADENA AVE, Sacramento, CA",95821,"4605 PASADENA AVE, Sacramento, CA, 95821",38.638211,-121.357257
"45",31399463,"1/6/2016 3:04:35 PM","","Open","311 Service Request","Code - Zoning","Transient Complaints","Transient Complaints","2001 HELENA AVE, Sacramento, CA",95821,"2001 HELENA AVE, Sacramento, CA, 95821",38.617166,-121.419065
"47",31399579,"1/6/2016 4:15:39 PM","","Open","311 Service Request","Code - Zoning","Transient Complaints","Transient Complaints","6430 VERNER AVE, Sacramento, CA",95841,"6430 VERNER AVE, Sacramento, CA, 95841",38.682766,-121.334086
"48",31399584,"1/6/2016 4:18:12 PM","","Open","311 Service Request","Code - Zoning","Zoning - Private Property Complaints","Private Property Complaints","2349 VILLANOVA CIR, Sacramento, CA",95825,"2349 VILLANOVA CIR, Sacramento, CA, 95825",38.582532,-121.409182
"49",31399601,"1/6/2016 4:30:55 PM","","Open","311 Service Request","Code - Zoning","Zoning - Private Property Complaints","Private Property Complaints","2505 CASTINE CT, Sacramento, CA",95826,"2505 CASTINE CT, Sacramento, CA, 95826",38.567605,-121.365166
"50",31399663,"1/6/2016 5:06:25 PM","","Open","311 Service Request","Transportation","Ditches/Culverts","Ditches/Culverts","11111 SIMMERHORN RD, Sacramento, CA",95632,"11111 SIMMERHORN RD, Sacramento, CA, 95632",38.332964,-121.262945
"51",31399723,"1/6/2016 6:58:34 PM","","Open","311 Service Request","Code - Zoning","Marijuana Cultivation Complaints","Marijuana Cultivation Complaints","9296 TAVERNOR RD, Sacramento, CA",95693,"9296 TAVERNOR RD, Sacramento, CA, 95693",38.417536,-121.203756
"53",31399843,"1/7/2016 8:22:46 AM","","Open","311 Service Request","Code - Housing","Emergency Housing Conditions","Emergency Housing Condition","5409 ANDREA BLVD, Sacramento, CA",95842,"5409 ANDREA BLVD, Sacramento, CA, 95842",38.691762,-121.339711
"54",31399870,"1/7/2016 8:43:45 AM","","Open","311 Service Request","Code - Housing","Sub-Standard Housing Complaints","Sub-Standard Housing Complaints","211 SELBY RANCH RD,Unit 5, Sacramento, CA",95864,"211 SELBY RANCH RD,Unit 5, Sacramento, CA, 95864",38.570677,-121.379968
"55",31399898,"1/7/2016 9:01:08 AM","","Open","311 Service Request","Code - Housing","Sub-Standard Housing Complaints","Sub-Standard Housing Complaints","6008 MARTIN LUTHER KING JR BLVD,Unit 2, Sacramento, CA",95824,"6008 MARTIN LUTHER KING JR BLVD,Unit 2, Sacramento, CA, 95824",38.516889,-121.464723
"56",31399965,"1/7/2016 9:37:02 AM","","Open","311 Service Request","Code - Housing","Emergency Housing Conditions","Emergency Housing Condition","5493 DIABLO DR, Sacramento, CA",95842,"5493 DIABLO DR, Sacramento, CA, 95842",38.686248,-121.337232
"57",31399979,"1/7/2016 9:44:53 AM","","Open","311 Service Request","Code - Housing","Sub-Standard Housing Complaints","Sub-Standard Housing Complaints","2229 EDISON AVE,Unit 35, Sacramento, CA",95821,"2229 EDISON AVE,Unit 35, Sacramento, CA, 95821",38.622668,-121.41277
"58",31400254,"1/7/2016 12:13:49 PM","","Open","311 Service Request","Code - Zoning","Transient Complaints","Transient Complaints","8695 GREENBACK LN, Sacramento, CA",95662,"8695 GREENBACK LN, Sacramento, CA, 95662",38.678633,-121.235881
"59",31400336,"1/7/2016 12:57:20 PM","","Open","311 Service Request","Code - Zoning","Zoning - Private Property Complaints","Private Property Complaints","3756 ROCK ISLAND DR, Sacramento, CA",95827,"3756 ROCK ISLAND DR, Sacramento, CA, 95827",38.552525,-121.341166
"60",31400351,"1/7/2016 1:05:47 PM","","Open","311 Service Request","Code - Zoning","Zoning - Private Property Complaints","Private Property Complaints","210 W DELANO ST, Sacramento, CA",95626,"210 W DELANO ST, Sacramento, CA, 95626",38.71007,-121.46163
"61",31400362,"1/7/2016 1:10:34 PM","","Open","Open311","Remote Device","Other","Other - 102419","6131 HOFFMAN LN, Sacramento, CA",95628,"6131 HOFFMAN LN, Sacramento, CA, 95628",38.677116,-121.252352
"62",31400547,"1/7/2016 3:13:08 PM","","Open","311 Service Request","Code - Housing","Sub-Standard Housing Complaints","Sub-Standard Housing Complaints","6532 GRATTAN WAY, Sacramento, CA",95660,"6532 GRATTAN WAY, Sacramento, CA, 95660",38.684402,-121.380621
"63",31400548,"1/7/2016 3:13:15 PM","","Open","311 Service Request","Code - Zoning","Private Property - Vehicles","Private Property - Vehicle","7531 GLENDORA CT, Sacramento, CA",95823,"7531 GLENDORA CT, Sacramento, CA, 95823",38.484133,-121.436904
"64",31400558,"1/7/2016 3:17:56 PM","","Open","311 Service Request","Code - Housing","Emergency Housing Conditions","Emergency Housing Condition","6530 GRATTAN WAY, Sacramento, CA",95660,"6530 GRATTAN WAY, Sacramento, CA, 95660",38.684394,-121.380571
"65",31400610,"1/7/2016 3:42:05 PM","","Open","311 Service Request","Transportation","Other","Transportation - Other","13503 BORDEN RD, Sacramento, CA",95638,"13503 BORDEN RD, Sacramento, CA, 95638",38.292812,-121.161743
"66",31400650,"1/7/2016 4:04:18 PM","","Open","311 Service Request","Code - Zoning","Private Property - Vehicles","Private Property - Vehicle","6204 SAMPSON BLVD, Sacramento, CA",95824,"6204 SAMPSON BLVD, Sacramento, CA, 95824",38.513105,-121.448965
"67",31400674,"1/7/2016 4:20:49 PM","","Open","311 Service Request","Code - Abandon Vehicles","Abandoned Vehicles","Abandoned Vehicle","3301 BLACK EAGLE DR, Sacramento, CA",95843,"3301 BLACK EAGLE DR, Sacramento, CA, 95843",38.723751,-121.387309
"68",31400679,"1/7/2016 4:24:04 PM","","Open","311 Service Request","Code - Housing","Sub-Standard Housing Complaints","Sub-Standard Housing Complaints","4621 ASHDALE CT, Sacramento, CA",95841,"4621 ASHDALE CT, Sacramento, CA, 95841",38.655004,-121.355982
"69",31400743,"1/7/2016 5:14:13 PM","","Open","311 Service Request","Code - Zoning","Transient Complaints","Transient Complaints","6431 FAIR OAKS BLVD, Sacramento, CA",95608,"6431 FAIR OAKS BLVD, Sacramento, CA, 95608",38.618028,-121.328653
"70",31400790,"1/7/2016 10:00:30 PM","","Open","Open311","Remote Device","Code violation","Zoning violations - 102513","5300 MCMILLAN DR, Sacramento, CA",95628,"5300 MCMILLAN DR, Sacramento, CA, 95628",38.643437,-121.268207
"72",31400913,"1/8/2016 9:00:47 AM","","Open","311 Service Request","Transportation","Median Right of Way Landscape Complaints","Median Right of Way Landscape Complaints","6500 GRANT AVE, Sacramento, CA",95608,"6500 GRANT AVE, Sacramento, CA, 95608",38.62932,-121.314305
"73",31401010,"1/8/2016 10:17:19 AM","","Open","311 Service Request","Code - Housing","Emergency Housing Conditions","Emergency Housing Condition","2011 WYDA WAY,Unit 5, Sacramento, CA",95825,"2011 WYDA WAY,Unit 5, Sacramento, CA, 95825",38.600054,-121.419745
"74",31401033,"1/8/2016 10:30:50 AM","","Open","311 Service Request","Code - Housing","Sub-Standard Housing Complaints","Sub-Standard Housing Complaints","2313 I ST, Sacramento, CA",95673,"2313 I ST, Sacramento, CA, 95673",38.683351,-121.412764
"75",31401043,"1/8/2016 10:36:18 AM","","Open","311 Service Request","Code - Housing","Emergency Housing Conditions","Emergency Housing Condition","7749 ROSE PETAL WAY, Sacramento, CA",95828,"7749 ROSE PETAL WAY, Sacramento, CA, 95828",38.47574,-121.376886
"76",31401101,"1/8/2016 11:20:15 AM","","Open","311 Service Request","Code - Housing","Sub-Standard Housing Complaints","Sub-Standard Housing Complaints","1741 WRIGHT ST,Unit 31, Sacramento, CA",95825,"1741 WRIGHT ST,Unit 31, Sacramento, CA, 95825",38.597913,-121.406034
"77",31401107,"1/8/2016 11:24:16 AM","","Open","311 Service Request","Code - Housing","Sub-Standard Housing Complaints","Sub-Standard Housing Complaints","2621 HOWE AVE,Unit 101, Sacramento, CA",95821,"2621 HOWE AVE,Unit 101, Sacramento, CA, 95821",38.613625,-121.415276
"78",31401174,"1/8/2016 12:19:47 PM","","Open","311 Service Request","Code - Housing","Sub-Standard Housing Complaints","Sub-Standard Housing Complaints","3541 WHITNEY AVE,Unit 208, Sacramento, CA",95821,"3541 WHITNEY AVE,Unit 208, Sacramento, CA, 95821",38.628722,-121.381028
"79",31401217,"1/8/2016 12:53:08 PM","","Open","311 Service Request","Code - Zoning","Private Property - Vehicles","Private Property - Vehicle","8178 HEFLIN CT, Sacramento, CA",95828,"8178 HEFLIN CT, Sacramento, CA, 95828",38.486332,-121.404873
"80",31401266,"1/8/2016 1:23:41 PM","","Open","311 Service Request","Code - Housing","Emergency Housing Conditions","Emergency Housing Condition","4801 SISKIYOU AVE, Sacramento, CA",95820,"4801 SISKIYOU AVE, Sacramento, CA, 95820",38.532136,-121.460605
"81",31401301,"1/8/2016 1:53:41 PM","","Open","311 Service Request","Code - Zoning","Private Property - Vehicles","Private Property - Vehicle","7500 CIRCLE PKWY, Sacramento, CA",95823,"7500 CIRCLE PKWY, Sacramento, CA, 95823",38.490888,-121.441861
"82",31401305,"1/8/2016 1:54:28 PM","","Open","311 Service Request","Code - Zoning","Zoning - Private Property Complaints","Private Property Complaints","5408 CHAUNCEY WAY, Sacramento, CA",95662,"5408 CHAUNCEY WAY, Sacramento, CA, 95662",38.665161,-121.214958
"83",31401381,"1/8/2016 2:51:20 PM","","Open","Open311","Remote Device","Code violation","Zoning violations - 102661","7641 BLACK BEAR DR, Sacramento, CA",95843,"7641 BLACK BEAR DR, Sacramento, CA, 95843",38.705746,-121.376882
"84",31401483,"1/8/2016 3:55:09 PM","","Open","311 Service Request","Code - Housing","Emergency Housing Conditions","Emergency Housing Condition","6647 MAIN AVE,Unit B, Sacramento, CA",95662,"6647 MAIN AVE,Unit B, Sacramento, CA, 95662",38.676311,-121.20043
"85",31401490,"1/8/2016 4:03:26 PM","","Open","311 Service Request","Code - Housing","Emergency Housing Conditions","Emergency Housing Condition","7166 FAIR OAKS BLVD,Unit 2, Sacramento, CA",95608,"7166 FAIR OAKS BLVD,Unit 2, Sacramento, CA, 95608",38.616892,-121.32451
"86",31401512,"1/8/2016 4:21:46 PM","","Open","311 Service Request","Code - Housing","Emergency Housing Conditions","Emergency Housing Condition","1100 HOWE AVE,Unit 314, Sacramento, CA",95825,"1100 HOWE AVE,Unit 314, Sacramento, CA, 95825",38.585318,-121.415321
"87",31401513,"1/8/2016 4:24:00 PM","","Open","311 Service Request","Code - Zoning","Zoning - Private Property Complaints","Private Property Complaints","7402 STOCKTON BLVD, Sacramento, CA",95823,"7402 STOCKTON BLVD, Sacramento, CA, 95823",38.488649,-121.42572
"88",31401548,"1/8/2016 4:50:35 PM","","Open","Open311","Remote Device","Other","Other - 102687","7829 RODRIGUEZ CIR, Sacramento, CA",95829,"7829 RODRIGUEZ CIR, Sacramento, CA, 95829",38.475198,-121.30908
"89",31401588,"1/8/2016 5:35:16 PM","","Open","311 Service Request","Code - Zoning","Private Property - Vehicles","Private Property - Vehicle","901 ANDERSON WOOD WAY, Sacramento, CA",95673,"901 ANDERSON WOOD WAY, Sacramento, CA, 95673",38.696951,-121.445242
"90",31401660,"1/8/2016 11:50:39 PM","","Open","Open311","Remote Device","Other","Other - 102727","6205 WHITECLIFF WAY, Sacramento, CA",95660,"6205 WHITECLIFF WAY, Sacramento, CA, 95660",38.679382,-121.362643
"91",31401683,"1/9/2016 9:08:38 AM","","Open","311 Service Request","Code - Housing","Sub-Standard Housing Complaints","Sub-Standard Housing Complaints","3536 WATT AVE,Unit 302B, Sacramento, CA",95821,"3536 WATT AVE,Unit 302B, Sacramento, CA, 95821",38.629868,-121.382808
"92",31401699,"1/9/2016 10:49:36 AM","","Open","311 Service Request","Code - Housing","Sub-Standard Housing Complaints","Sub-Standard Housing Complaints","5545 MARCONI AVE,Unit 134, Sacramento, CA",95608,"5545 MARCONI AVE,Unit 134, Sacramento, CA, 95608",38.617217,-121.333555
"93",31401735,"1/9/2016 2:34:38 PM","","Open","311 Service Request","Code - Housing","Sub-Standard Housing Complaints","Sub-Standard Housing Complaints","1961 HOWE AVE,Unit 39, Sacramento, CA",95825,"1961 HOWE AVE,Unit 39, Sacramento, CA, 95825",38.602324,-121.415204
"94",31401812,"1/10/2016 5:00:11 AM","","Open","311 Service Request","Code - Zoning","Zoning - Private Property Complaints","Private Property Complaints","8612 WILLOW GROVE WAY, Sacramento, CA",95828,"8612 WILLOW GROVE WAY, Sacramento, CA, 95828",38.463895,-121.388665
"95",31401872,"1/10/2016 6:40:02 PM","","Open","311 Service Request","Code - Abandon Vehicles","Abandoned Vehicles","Abandoned Vehicle","3301 BLACK EAGLE DR, Sacramento, CA",95843,"3301 BLACK EAGLE DR, Sacramento, CA, 95843",38.723751,-121.387309
"96",31401909,"1/11/2016 7:13:42 AM","","Open","311 Service Request","Code - Housing","Sub-Standard Housing Complaints","Sub-Standard Housing Complaints","5307 MARCONI AVE, Sacramento, CA",95608,"5307 MARCONI AVE, Sacramento, CA, 95608",38.617381,-121.341227
"97",31401938,"1/11/2016 7:52:20 AM","","Open","Open311","Remote Device","Other","Other - 102845","6526 FAIR OAKS BLVD, Sacramento, CA",95608,"6526 FAIR OAKS BLVD, Sacramento, CA, 95608",38.618191,-121.328499
"98",31401979,"1/11/2016 8:05:43 AM","","Open","Open311","Remote Device","Public right of way","Public right of way - 102942","7112 STANFORD OAK DR, Sacramento, CA",95842,"7112 STANFORD OAK DR, Sacramento, CA, 95842",38.695013,-121.329077
"99",31401998,"1/11/2016 8:09:22 AM","","Open","Open311","Remote Device","Tree","Tree - 102967","3410 CLUB LN, Sacramento, CA",95821,"3410 CLUB LN, Sacramento, CA, 95821",38.626232,-121.385174
"100",31401999,"1/11/2016 8:09:23 AM","","Open","Open311","Remote Device","Tree","Tree - 102966","3205 POPE AVE, Sacramento, CA",95821,"3205 POPE AVE, Sacramento, CA, 95821",38.625111,-121.389327
"101",31402000,"1/11/2016 8:09:23 AM","","Open","Open311","Remote Device","Illegal dumping","Illegal dumping - 102972","2912 WATT AVE, Sacramento, CA",95821,"2912 WATT AVE, Sacramento, CA, 95821",38.618044,-121.382952
"102",31402011,"1/11/2016 8:13:21 AM","","Open","Open311","Remote Device","Other","Other - 102994","8101 GERBER RD, Sacramento, CA",95828,"8101 GERBER RD, Sacramento, CA, 95828",38.481678,-121.408768
"103",31402207,"1/11/2016 10:01:59 AM","","Open","311 Service Request","Transportation","Other","Transportation - Other","10715 ARNO RD, Sacramento, CA",95632,"10715 ARNO RD, Sacramento, CA, 95632",38.336321,-121.290035
"104",31402408,"1/11/2016 11:49:40 AM","","Open","311 Service Request","Code - Zoning","Private Property - Animals","Private Property - Animal","9021 LELAND AVE, Sacramento, CA",95829,"9021 LELAND AVE, Sacramento, CA, 95829",38.475406,-121.367517
"105",31402451,"1/11/2016 12:18:10 PM","","Open","311 Service Request","Code - Zoning","Private Property - Vehicles","Private Property - Vehicle","4540 COUNTRY RUN WAY, Sacramento, CA",95843,"4540 COUNTRY RUN WAY, Sacramento, CA, 95843",38.718621,-121.390753
"106",31402493,"1/11/2016 12:42:17 PM","","Open","311 Service Request","Code - Housing","Sub-Standard Housing Complaints","Sub-Standard Housing Complaints","4604 MADISON AVE, Sacramento, CA",95841,"4604 MADISON AVE, Sacramento, CA, 95841",38.660895,-121.357649
"107",31402620,"1/11/2016 1:50:32 PM","","Open","Open311","Remote Device","Other","Other - 103114","3634 MORSE AVE, Sacramento, CA",95821,"3634 MORSE AVE, Sacramento, CA, 95821",38.631634,-121.392099
"108",31402716,"1/11/2016 2:50:54 PM","","Open","311 Service Request","Code - Zoning","Zoning - Private Property Complaints","Private Property Complaints","501 ELKHORN BLVD, Sacramento, CA",95673,"501 ELKHORN BLVD, Sacramento, CA, 95673",38.682049,-121.454109
"109",31402719,"1/11/2016 2:52:39 PM","","Open","311 Service Request","Code - Zoning","Transient Complaints","Transient Complaints","7941 FAIR OAKS BLVD, Sacramento, CA",95608,"7941 FAIR OAKS BLVD, Sacramento, CA, 95608",38.636636,-121.318318
"110",31402739,"1/11/2016 3:04:13 PM","","Open","311 Service Request","Code - Housing","Emergency Housing Conditions","Emergency Housing Condition","4344 FRIZELL AVE, Sacramento, CA",95842,"4344 FRIZELL AVE, Sacramento, CA, 95842",38.663255,-121.363459
"111",31402746,"1/11/2016 3:08:07 PM","","Open","311 Service Request","Code - Housing","Sub-Standard Housing Complaints","Sub-Standard Housing Complaints","5049 ENGLE RD, Sacramento, CA",95608,"5049 ENGLE RD, Sacramento, CA, 95608",38.631948,-121.347752
"112",31402929,"1/11/2016 5:08:19 PM","","Open","311 Service Request","Code - Zoning","Zoning - Private Property Complaints","Private Property Complaints","1219 CLINTON RD, Sacramento, CA",95825,"1219 CLINTON RD, Sacramento, CA, 95825",38.587348,-121.406906
"114",31402976,"1/11/2016 7:02:22 PM","","Open","311 Service Request","Code - Zoning","Transient Complaints","Transient Complaints","3100 51ST AVE, Sacramento, CA",95823,"3100 51ST AVE, Sacramento, CA, 95823",38.504796,-121.4733
"115",31403087,"1/12/2016 8:10:31 AM","","Open","Open311","Remote Device","Other","Other - 103221","5743 MARCONI AVE, Sacramento, CA",95608,"5743 MARCONI AVE, Sacramento, CA, 95608",38.617276,-121.332349
"116",31403180,"1/12/2016 9:13:20 AM","","Open","311 Service Request","Code - Zoning","Private Property - Animals","Private Property - Animal","8043 GOLDEN MEADOW DR, Sacramento, CA",95828,"8043 GOLDEN MEADOW DR, Sacramento, CA, 95828",38.465979,-121.395241
"117",31403286,"1/12/2016 10:11:22 AM","","Open","Open311","Remote Device","Code violation","Zoning violations - 103269","7227 LARCHMONT DR, Sacramento, CA",95660,"7227 LARCHMONT DR, Sacramento, CA, 95660",38.699119,-121.376291
"118",31403305,"1/12/2016 10:20:39 AM","","Open","311 Service Request","Code - Zoning","Zoning - Private Property Complaints","Private Property Complaints","5821 RICH HILL DR, Sacramento, CA",95662,"5821 RICH HILL DR, Sacramento, CA, 95662",38.67136,-121.212672
"119",31403323,"1/12/2016 10:31:16 AM","","Open","311 Service Request","Code - Zoning","Zoning - Private Property Complaints","Private Property Complaints","4821 SAINT LYNN LN, Sacramento, CA",95608,"4821 SAINT LYNN LN, Sacramento, CA, 95608",38.661147,-121.310185
"120",31403330,"1/12/2016 10:34:50 AM","","Open","311 Service Request","Code - Zoning","Zoning - Private Property Complaints","Private Property Complaints","10891 CALVINE RD, Sacramento, CA",95830,"10891 CALVINE RD, Sacramento, CA, 95830",38.452612,-121.278273
"121",31403331,"1/12/2016 10:36:46 AM","","Open","311 Service Request","Code - Zoning","Private Property - Vehicles","Private Property - Vehicle","10891 CALVINE RD, Sacramento, CA",95830,"10891 CALVINE RD, Sacramento, CA, 95830",38.452612,-121.278273
"122",31403412,"1/12/2016 11:11:14 AM","","Open","311 Service Request","Code - Housing","Emergency Housing Conditions","Emergency Housing Condition","5056 DEERPARK CIR, Sacramento, CA",95628,"5056 DEERPARK CIR, Sacramento, CA, 95628",38.643437,-121.268207
"123",31403488,"1/12/2016 11:46:37 AM","","Open","311 Service Request","Transportation","Other","Transportation - Other","14325 ISLETON RD, Sacramento, CA",95690,"14325 ISLETON RD, Sacramento, CA, 95690",38.23503,-121.558
"124",31403533,"1/12/2016 12:16:18 PM","","Open","311 Service Request","Code - Housing","Sub-Standard Housing Complaints","Sub-Standard Housing Complaints","5325 MARCONI AVE, Sacramento, CA",95608,"5325 MARCONI AVE, Sacramento, CA, 95608",38.617374,-121.34068
"125",31403620,"1/12/2016 1:02:52 PM","","Open","311 Service Request","Code - Zoning","Zoning - Private Property Complaints","Private Property Complaints","5244 COLLEGE OAK DR, Sacramento, CA",95841,"5244 COLLEGE OAK DR, Sacramento, CA, 95841",38.660951,-121.350454
"126",31403637,"1/12/2016 1:14:45 PM","","Open","311 Service Request","Code - Zoning","Business Area Not Zoned","Business Area Not Zoned","4504 HAYFORD WAY, Sacramento, CA",95842,"4504 HAYFORD WAY, Sacramento, CA, 95842",38.67013,-121.358487
"127",31403696,"1/12/2016 1:44:53 PM","","Open","311 Service Request","Code - Abandon Vehicles","Abandoned Vehicles","Abandoned Vehicle","3625 EAGLE CREST CIR, Sacramento, CA",95843,"3625 EAGLE CREST CIR, Sacramento, CA, 95843",38.72192,-121.379555
"128",31403793,"1/12/2016 2:45:35 PM","","Open","311 Service Request","Code - Zoning","Zoning - Private Property Complaints","Private Property Complaints","5307 MARCONI AVE, Sacramento, CA",95608,"5307 MARCONI AVE, Sacramento, CA, 95608",38.617381,-121.341227
"129",31403795,"1/12/2016 2:46:11 PM","","Open","311 Service Request","Code - Housing","Sub-Standard Housing Complaints","Sub-Standard Housing Complaints","5307 MARCONI AVE, Sacramento, CA",95608,"5307 MARCONI AVE, Sacramento, CA, 95608",38.617381,-121.341227
"130",31403852,"1/12/2016 3:24:41 PM","","Open","311 Service Request","Code - Zoning","Transient Complaints","Transient Complaints","3001 BECERRA WAY, Sacramento, CA",95821,"3001 BECERRA WAY, Sacramento, CA, 95821",38.619901,-121.373759
"132",31403934,"1/12/2016 4:16:20 PM","","Open","311 Service Request","Code - Zoning","Private Property - Vehicles","Private Property - Vehicle","7884 SUNRISE GREENS DR, Sacramento, CA",95828,"7884 SUNRISE GREENS DR, Sacramento, CA, 95828",38.471249,-121.397006
"133",31404125,"1/13/2016 9:01:23 AM","","Open","Open311","Remote Device","Illegal dumping","Zoning","7423 FAIR OAKS BLVD,Unit 8, Sacramento, CA",95608,"7423 FAIR OAKS BLVD,Unit 8, Sacramento, CA, 95608",38.636026,-121.328109
"135",31404159,"1/13/2016 9:20:36 AM","","Open","Open311","Remote Device","Other","Other - 103477","7300 FAIR OAKS BLVD,Unit A, Sacramento, CA",95608,"7300 FAIR OAKS BLVD,Unit A, Sacramento, CA, 95608",38.633263,-121.328143
"136",31404202,"1/13/2016 9:54:33 AM","","Open","311 Service Request","Code - Housing","Sub-Standard Housing Complaints","Sub-Standard Housing Complaints","2994 WRIGHT ST, Sacramento, CA",95821,"2994 WRIGHT ST, Sacramento, CA, 95821",38.619806,-121.405978
"137",31404204,"1/13/2016 9:54:54 AM","","Open","311 Service Request","Code - Zoning","Zoning - Private Property Complaints","Private Property Complaints","4751 MANZANITA AVE, Sacramento, CA",95608,"4751 MANZANITA AVE, Sacramento, CA, 95608",38.650254,-121.327734
"138",31404256,"1/13/2016 10:29:20 AM","","Open","311 Service Request","Code - Zoning","Private Property - Vehicles","Private Property - Vehicle","6941 RICHMAN WAY, Sacramento, CA",95828,"6941 RICHMAN WAY, Sacramento, CA, 95828",38.501735,-121.421543
"139",31404303,"1/13/2016 10:52:05 AM","","Open","311 Service Request","Code - Housing","Emergency Housing Conditions","Emergency Housing Condition","5193 EL PARAISO AVE, Sacramento, CA",95824,"5193 EL PARAISO AVE, Sacramento, CA, 95824",38.513878,-121.443032
"140",31404445,"1/13/2016 12:22:45 PM","","Open","311 Service Request","Code - Zoning","Transient Complaints","Transient Complaints","8900 GREENBACK LN, Sacramento, CA",95662,"8900 GREENBACK LN, Sacramento, CA, 95662",38.678433,-121.225608
"141",31404487,"1/13/2016 12:43:48 PM","","Open","311 Service Request","Code - Zoning","Private Property - Vehicles","Private Property - Vehicle","6620 2ND ST, Sacramento, CA",95673,"6620 2ND ST, Sacramento, CA, 95673",38.688017,-121.46152
"142",31404688,"1/13/2016 2:18:27 PM","","Open","311 Service Request","Code - Housing","Sub-Standard Housing Complaints","Sub-Standard Housing Complaints","5967 GILMAN WAY, Sacramento, CA",95660,"5967 GILMAN WAY, Sacramento, CA, 95660",38.674545,-121.367917
"143",31404765,"1/13/2016 3:07:38 PM","","Open","311 Service Request","Code - Housing","Sub-Standard Housing Complaints","Sub-Standard Housing Complaints","5110 EL CAMINO AVE,Unit 1, Sacramento, CA",95608,"5110 EL CAMINO AVE,Unit 1, Sacramento, CA, 95608",38.627586,-121.352368
"144",31404830,"1/13/2016 3:33:26 PM","","Open","311 Service Request","Code - Zoning","Private Property - Vehicles","Private Property - Vehicle","3928 EL CAMINO AVE, Sacramento, CA",95821,"3928 EL CAMINO AVE, Sacramento, CA, 95821",38.61033,-121.373065
"145",31405084,"1/14/2016 8:19:23 AM","","Open","311 Service Request","Transportation","Ditches/Culverts","Ditches/Culverts","5630 FRONTIER WAY, Sacramento, CA",95608,"5630 FRONTIER WAY, Sacramento, CA, 95608",38.608368,-121.333529
"147",31405169,"1/14/2016 9:14:05 AM","","Open","311 Service Request","Code - Zoning","Private Property - Vehicles","Private Property - Vehicle","5300 MCMILLAN DR, Sacramento, CA",95628,"5300 MCMILLAN DR, Sacramento, CA, 95628",38.643437,-121.268207
"148",31405177,"1/14/2016 9:22:25 AM","","Open","311 Service Request","Code - Zoning","Private Property - Vehicles","Private Property - Vehicle","5648 SAMPSON BLVD, Sacramento, CA",95824,"5648 SAMPSON BLVD, Sacramento, CA, 95824",38.523279,-121.449362
"149",31405188,"1/14/2016 9:28:01 AM","","Open","311 Service Request","Code - Zoning","Business Area Not Zoned","Business Area Not Zoned","7000 BANDY RD, Sacramento, CA",95829,"7000 BANDY RD, Sacramento, CA, 95829",38.49868,-121.369707
"150",31405191,"1/14/2016 9:29:23 AM","","Open","311 Service Request","Code - Housing","Sub-Standard Housing Complaints","Sub-Standard Housing Complaints","7271 FLORIN MALL DR,Unit 1001, Sacramento, CA",95823,"7271 FLORIN MALL DR,Unit 1001, Sacramento, CA, 95823",38.493462,-121.434266
"151",31405201,"1/14/2016 9:35:37 AM","","Open","311 Service Request","Transportation","Other","Transportation - Other","4950 HARRISON ST, Sacramento, CA",95660,"4950 HARRISON ST, Sacramento, CA, 95660",38.655723,-121.368953
"152",31405316,"1/14/2016 10:58:14 AM","","Open","311 Service Request","Code - Zoning","Transient Complaints","Transient Complaints","923 ENTERPRISE DR, Sacramento, CA",95825,"923 ENTERPRISE DR, Sacramento, CA, 95825",38.582422,-121.416986
"153",31405527,"1/14/2016 1:14:48 PM","","Open","311 Service Request","Code - Zoning","Transient Complaints","Transient Complaints","7411 FAIR OAKS BLVD, Sacramento, CA",95608,"7411 FAIR OAKS BLVD, Sacramento, CA, 95608",38.635449,-121.328089
"154",31405648,"1/14/2016 2:12:19 PM","","Open","311 Service Request","Code - Zoning","Private Property - Animals","Private Property - Animal","8619 FOXPARK CT, Sacramento, CA",95843,"8619 FOXPARK CT, Sacramento, CA, 95843",38.725627,-121.384492
"155",31405663,"1/14/2016 2:23:28 PM","","Open","311 Service Request","Code - Zoning","Private Property - Vehicles","Private Property - Vehicle","2021 RED ROBIN LN,Unit 3, Sacramento, CA",95821,"2021 RED ROBIN LN,Unit 3, Sacramento, CA, 95821",38.61535,-121.419444
"156",31405745,"1/14/2016 3:16:27 PM","","Open","311 Service Request","Code - Housing","Sub-Standard Housing Complaints","Sub-Standard Housing Complaints","5920 VAN ALSTINE AVE,Unit 18, Sacramento, CA",95608,"5920 VAN ALSTINE AVE,Unit 18, Sacramento, CA, 95608",38.659292,-121.320291
"157",31405765,"1/14/2016 3:31:42 PM","","Open","311 Service Request","Code - Zoning","Zoning - Private Property Complaints","Private Property Complaints","2820 MAISON WAY, Sacramento, CA",95864,"2820 MAISON WAY, Sacramento, CA, 95864",38.593395,-121.398133
"158",31405778,"1/14/2016 3:36:32 PM","","Open","311 Service Request","Code - Zoning","Zoning - Private Property Complaints","Private Property Complaints","6616 MODESTO DR, Sacramento, CA",95842,"6616 MODESTO DR, Sacramento, CA, 95842",38.684584,-121.344041
"159",31405884,"1/14/2016 5:01:42 PM","","Open","Open311","Remote Device","Other","Other - 103815","7141 STANFORD OAK DR, Sacramento, CA",95842,"7141 STANFORD OAK DR, Sacramento, CA, 95842",38.695773,-121.329466
"160",31405893,"1/14/2016 5:13:18 PM","","Open","311 Service Request","Code - Housing","Emergency Housing Conditions","Emergency Housing Condition","6725 THOMAS DR, Sacramento, CA",95660,"6725 THOMAS DR, Sacramento, CA, 95660",38.690753,-121.374462
"161",31405915,"1/14/2016 7:07:42 PM","","Open","311 Service Request","Code - Zoning","Business Area Not Zoned","Business Area Not Zoned","2505 CASTINE CT, Sacramento, CA",95826,"2505 CASTINE CT, Sacramento, CA, 95826",38.567605,-121.365166
"162",31405984,"1/15/2016 7:57:18 AM","","Open","311 Service Request","Code - Zoning","Transient Complaints","Transient Complaints","1290 FULTON AVE, Sacramento, CA",95825,"1290 FULTON AVE, Sacramento, CA, 95825",38.58858,-121.401391
"164",31406074,"1/15/2016 9:10:49 AM","","Open","Open311","Remote Device","Other","Other - 103881","8684 BEAUXART CIR, Sacramento, CA",95828,"8684 BEAUXART CIR, Sacramento, CA, 95828",38.48869,-121.383729
"165",31406161,"1/15/2016 10:09:02 AM","","Open","311 Service Request","Code - Housing","Sub-Standard Housing Complaints","Sub-Standard Housing Complaints","2229 EDISON AVE,Unit 35, Sacramento, CA",95821,"2229 EDISON AVE,Unit 35, Sacramento, CA, 95821",38.622668,-121.41277
"166",31406176,"1/15/2016 10:18:52 AM","","Open","311 Service Request","Transportation","Pothole Sidewalk Complaints","Pothole Sidewalk Complaints","5936 CLOVER MANOR WAY, Sacramento, CA",95824,"5936 CLOVER MANOR WAY, Sacramento, CA, 95824",38.518086,-121.446546
"167",31406191,"1/15/2016 10:24:19 AM","","Open","311 Service Request","Code - Zoning","Zoning - Private Property Complaints","Private Property Complaints","4506 KEWANEE ST, Sacramento, CA",95628,"4506 KEWANEE ST, Sacramento, CA, 95628",38.647797,-121.240382
"168",31406230,"1/15/2016 10:45:41 AM","","Open","311 Service Request","Code - Zoning","Zoning - Private Property Complaints","Private Property Complaints","4121 BIG CLOUD WAY, Sacramento, CA",95843,"4121 BIG CLOUD WAY, Sacramento, CA, 95843",38.708261,-121.367893
"169",31406246,"1/15/2016 10:53:59 AM","","Open","311 Service Request","Transportation","Street Light Complaints","Street Light Complaints","8936 CANBERRA DR, Sacramento, CA",95826,"8936 CANBERRA DR, Sacramento, CA, 95826",38.5426,-121.371026
"170",31406451,"1/15/2016 1:11:37 PM","","Open","311 Service Request","Code - Zoning","Zoning - Private Property Complaints","Private Property Complaints","5205 MENDOCINO BLVD, Sacramento, CA",95820,"5205 MENDOCINO BLVD, Sacramento, CA, 95820",38.528213,-121.461526
"171",31406510,"1/15/2016 2:00:35 PM","","Open","Open311","Remote Device","Abandoned vehicle","Abandoned Vehicle - 103936","5101 VISTA SIERRA DR, Sacramento, CA",95843,"5101 VISTA SIERRA DR, Sacramento, CA, 95843",38.519878,-121.465096
"172",31406569,"1/15/2016 2:37:14 PM","","Open","311 Service Request","Code - Zoning","Private Property - Vehicles","Private Property - Vehicle","4104 STRATHMORE WAY, Sacramento, CA",95660,"4104 STRATHMORE WAY, Sacramento, CA, 95660",38.698935,-121.36923
"173",31406584,"1/15/2016 2:49:17 PM","","Open","311 Service Request","Code - Housing","Sub-Standard Housing Complaints","Sub-Standard Housing Complaints","4735 MARCONI AVE,Unit 22, Sacramento, CA",95608,"4735 MARCONI AVE,Unit 22, Sacramento, CA, 95608",38.617532,-121.354389
"174",31406754,"1/15/2016 4:43:15 PM","","Open","Open311","Remote Device","Other","Other - 103956","4451 LEMON HILL AVE, Sacramento, CA",95824,"4451 LEMON HILL AVE, Sacramento, CA, 95824",38.515999,-121.454878
"175",31406817,"1/15/2016 5:40:41 PM","","Open","Open311","Remote Device","Other","Other - 103966","5100 DOE HOLLOW PL, Sacramento, CA",95843,"5100 DOE HOLLOW PL, Sacramento, CA, 95843",38.710196,-121.345771
"176",31406854,"1/15/2016 8:10:55 PM","","Open","Open311","Remote Device","Code violation","Zoning violations - 103975","4408 RAVENWOOD AVE, Sacramento, CA",95821,"4408 RAVENWOOD AVE, Sacramento, CA, 95821",38.611594,-121.362548
"177",31406915,"1/16/2016 11:10:35 AM","","Open","Open311","Remote Device","Other","Other - 104052","9200 BLUE OAK DR, Sacramento, CA",95662,"9200 BLUE OAK DR, Sacramento, CA, 95662",38.700058,-121.211044
"178",31406954,"1/16/2016 1:30:55 PM","","Open","Open311","Remote Device","Other","Other - 104063","2000 WATT AVE, Sacramento, CA",95825,"2000 WATT AVE, Sacramento, CA, 95825",38.600871,-121.383051
"179",31407021,"1/16/2016 6:34:57 PM","","Open","311 Service Request","Code - Zoning","Zoning - Private Property Complaints","Private Property Complaints","4021 NEW YORK AVE, Sacramento, CA",95628,"4021 NEW YORK AVE, Sacramento, CA, 95628",38.643437,-121.268207
"180",31407033,"1/16/2016 9:09:04 PM","","Open","311 Service Request","Code - Zoning","Zoning - Private Property Complaints","Private Property Complaints","6077 OGDEN NASH WAY, Sacramento, CA",95842,"6077 OGDEN NASH WAY, Sacramento, CA, 95842",38.682296,-121.351863
"181",31407091,"1/17/2016 2:10:36 PM","","Open","Open311","Remote Device","Illegal dumping","Illegal dumping - 104191","5952 MENDOCINO BLVD, Sacramento, CA",95824,"5952 MENDOCINO BLVD, Sacramento, CA, 95824",38.518645,-121.46189
"182",31407092,"1/17/2016 2:14:51 PM","","Open","311 Service Request","Code - Zoning","Transient Complaints","Transient Complaints","6710 FRONT ST, Sacramento, CA",95673,"6710 FRONT ST, Sacramento, CA, 95673",38.68983,-121.448327
"183",31407149,"1/17/2016 6:21:59 PM","","Open","311 Service Request","Code - Zoning","Private Property - Vehicles","Private Property - Vehicle","9228 CARLA WAY, Sacramento, CA",95826,"9228 CARLA WAY, Sacramento, CA, 95826",38.559507,-121.357896
"184",31407153,"1/17/2016 6:36:03 PM","","Open","311 Service Request","Code - Zoning","Private Property - Vehicles","Private Property - Vehicle","8933 NEW DAWN DR, Sacramento, CA",95826,"8933 NEW DAWN DR, Sacramento, CA, 95826",38.553939,-121.370228
"185",31407156,"1/17/2016 6:47:07 PM","","Open","311 Service Request","Code - Zoning","Private Property - Vehicles","Private Property - Vehicle","9041 SUTTERS GOLD DR, Sacramento, CA",95826,"9041 SUTTERS GOLD DR, Sacramento, CA, 95826",38.550762,-121.366884
"186",31407157,"1/17/2016 6:51:19 PM","","Open","311 Service Request","Code - Zoning","Private Property - Vehicles","Private Property - Vehicle","9277 CALDERA WAY, Sacramento, CA",95826,"9277 CALDERA WAY, Sacramento, CA, 95826",38.55821,-121.354036
"187",31407159,"1/17/2016 6:53:53 PM","","Open","311 Service Request","Code - Zoning","Private Property - Vehicles","Private Property - Vehicle","3039 HEIRLOOM WAY, Sacramento, CA",95826,"3039 HEIRLOOM WAY, Sacramento, CA, 95826",38.559499,-121.355736
"188",31407160,"1/17/2016 6:57:03 PM","","Open","311 Service Request","Code - Zoning","Private Property - Vehicles","Private Property - Vehicle","3039 HEIRLOOM WAY, Sacramento, CA",95826,"3039 HEIRLOOM WAY, Sacramento, CA, 95826",38.559499,-121.355736
"189",31407161,"1/17/2016 6:59:26 PM","","Open","311 Service Request","Code - Zoning","Private Property - Vehicles","Private Property - Vehicle","3183 ROSEMONT DR, Sacramento, CA",95826,"3183 ROSEMONT DR, Sacramento, CA, 95826",38.55533,-121.357089
"190",31407168,"1/17/2016 7:20:44 PM","","Open","Open311","Remote Device","Code violation","Zoning violations - 104147","4620 PRETENTIOUS WAY, Sacramento, CA",95842,"4620 PRETENTIOUS WAY, Sacramento, CA, 95842",38.694889,-121.356165
"191",31407214,"1/18/2016 3:38:52 AM","","Open","311 Service Request","Code - Zoning","Private Property - Vehicles","Private Property - Vehicle","9013 SUTTERS GOLD DR, Sacramento, CA",95826,"9013 SUTTERS GOLD DR, Sacramento, CA, 95826",38.550909,-121.367246
"192",31407216,"1/18/2016 5:01:52 AM","","Open","311 Service Request","Code - Zoning","Private Property - Vehicles","Private Property - Vehicle","9221 CALDERA WAY, Sacramento, CA",95826,"9221 CALDERA WAY, Sacramento, CA, 95826",38.55829,-121.356977
"193",31407231,"1/18/2016 7:15:51 AM","","Open","311 Service Request","Code - Zoning","Private Property - Animals","Private Property - Animal","3904 RUNNING BEAR WAY, Sacramento, CA",95843,"3904 RUNNING BEAR WAY, Sacramento, CA, 95843",38.70818,-121.37271
"194",31407265,"1/18/2016 8:35:00 AM","","Open","311 Service Request","Code - Zoning","Private Property - Animals","Private Property - Animal","7444 TIERRA WAY, Sacramento, CA",95628,"7444 TIERRA WAY, Sacramento, CA, 95628",38.6476,-121.290662
"195",31407268,"1/18/2016 8:43:00 AM","","Open","311 Service Request","Code - Zoning","Zoning - Private Property Complaints","Private Property Complaints","6916 ELLSWORTH CIR, Sacramento, CA",95628,"6916 ELLSWORTH CIR, Sacramento, CA, 95628",38.643437,-121.268207
"196",31407337,"1/18/2016 10:01:23 AM","","Open","311 Service Request","Code - Zoning","Zoning - Private Property Complaints","Private Property Complaints","3204 Q ST, Sacramento, CA",95660,"3204 Q ST, Sacramento, CA, 95660",38.697572,-121.392025
"197",31407348,"1/18/2016 10:12:02 AM","","Open","311 Service Request","Code - Zoning","Transient Complaints","Transient Complaints","7820 FAIR OAKS BLVD, Sacramento, CA",95608,"7820 FAIR OAKS BLVD, Sacramento, CA, 95608",38.636685,-121.320743
"198",31407492,"1/18/2016 1:10:34 PM","","Open","Open311","Remote Device","Tree","Tree - 104308","3201 MOUNTAIN VIEW AVE, Sacramento, CA",95821,"3201 MOUNTAIN VIEW AVE, Sacramento, CA, 95821",38.622989,-121.393746
"199",31407579,"1/18/2016 3:10:58 PM","","Open","311 Service Request","Code - Zoning","Private Property - Vehicles","Private Property - Vehicle","9050 RIO LINDA BLVD, Sacramento, CA",95626,"9050 RIO LINDA BLVD, Sacramento, CA, 95626",38.732675,-121.480597
"200",31407599,"1/18/2016 3:24:23 PM","","Open","311 Service Request","Code - Zoning","Zoning - Private Property Complaints","Private Property Complaints","3629 THORNWOOD DR, Sacramento, CA",95821,"3629 THORNWOOD DR, Sacramento, CA, 95821",38.62339,-121.379859
"201",31407661,"1/18/2016 5:01:22 PM","","Open","Open311","Remote Device","Code violation","Zoning violations - 104341","6669 STEINER DR, Sacramento, CA",95823,"6669 STEINER DR, Sacramento, CA, 95823",38.506024,-121.443072
"202",31407674,"1/18/2016 5:47:39 PM","","Open","311 Service Request","Code - Zoning","Transient Complaints","Transient Complaints","3109 SOMERSET RD, Sacramento, CA",95864,"3109 SOMERSET RD, Sacramento, CA, 95864",38.591422,-121.392066
"203",31407684,"1/18/2016 6:21:15 PM","","Open","311 Service Request","Code - Zoning","Private Property - Vehicles","Private Property - Vehicle","3702 ATWATER RD, Sacramento, CA",95864,"3702 ATWATER RD, Sacramento, CA, 95864",38.605678,-121.379475
"204",31407719,"1/19/2016 3:20:54 AM","","Open","Open311","Remote Device","Other","Other - 104382","5984 WALERGA RD,Unit 4, Sacramento, CA",95842,"5984 WALERGA RD,Unit 4, Sacramento, CA, 95842",38.676228,-121.359271
"205",31407736,"1/19/2016 7:22:27 AM","","Open","Open311","Remote Device","Other","Other - 104416","7301 FAIR OAKS BLVD, Sacramento, CA",95608,"7301 FAIR OAKS BLVD, Sacramento, CA, 95608",38.633489,-121.328138
"206",31407740,"1/19/2016 7:37:10 AM","","Open","311 Service Request","Code - Zoning","Transient Complaints","Transient Complaints","2590 ELVERTA RD, Sacramento, CA",95626,"2590 ELVERTA RD, Sacramento, CA, 95626",38.71428,-121.402014
"207",31407853,"1/19/2016 9:04:19 AM","","Open","311 Service Request","Code - Zoning","Zoning - Private Property Complaints","Private Property Complaints","5444 WATT AVE, Sacramento, CA",95660,"5444 WATT AVE, Sacramento, CA, 95660",38.665937,-121.382846
"208",31407872,"1/19/2016 9:19:50 AM","","Open","311 Service Request","Code - Zoning","Zoning - Private Property Complaints","Private Property Complaints","6320 MARYSVILLE BLVD, Sacramento, CA",95673,"6320 MARYSVILLE BLVD, Sacramento, CA, 95673",38.68267,-121.466323
"209",31407944,"1/19/2016 9:57:04 AM","","Open","311 Service Request","Code - Zoning","Business Area Not Zoned","Business Area Not Zoned","3809 SUNNYVALE AVE, Sacramento, CA",95821,"3809 SUNNYVALE AVE, Sacramento, CA, 95821",38.632788,-121.376987
"210",31407969,"1/19/2016 10:11:22 AM","","Open","Open311","Remote Device","Abandoned vehicle","Abandoned Vehicle - 104452","5086 SHELL ST, Sacramento, CA",95660,"5086 SHELL ST, Sacramento, CA, 95660",38.659879,-121.375824
"211",31408031,"1/19/2016 10:39:41 AM","","Open","311 Service Request","Code - Housing","Emergency Housing Conditions","Emergency Housing Condition","6209 ROSS AVE, Sacramento, CA",95608,"6209 ROSS AVE, Sacramento, CA, 95608",38.635867,-121.320923
"212",31408098,"1/19/2016 11:04:33 AM","","Open","311 Service Request","Code - Zoning","Zoning - Private Property Complaints","Private Property Complaints","9395 OTTOMON WAY, Sacramento, CA",95662,"9395 OTTOMON WAY, Sacramento, CA, 95662",38.697782,-121.202038
"213",31408121,"1/19/2016 11:12:42 AM","","Open","311 Service Request","Transportation","Tree Complaints","Tree Complaints","7848 GULL WAY, Sacramento, CA",95843,"7848 GULL WAY, Sacramento, CA, 95843",38.711084,-121.391516
"214",31408179,"1/19/2016 11:38:01 AM","","Open","311 Service Request","Code - Housing","Sub-Standard Housing Complaints","Sub-Standard Housing Complaints","5322 HEMLOCK ST,Unit 122, Sacramento, CA",95841,"5322 HEMLOCK ST,Unit 122, Sacramento, CA, 95841",38.664404,-121.341195
"215",31408329,"1/19/2016 12:54:54 PM","","Open","311 Service Request","Code - Zoning","Zoning - Private Property Complaints","Private Property Complaints","7000 DRYWOOD WAY, Sacramento, CA",95662,"7000 DRYWOOD WAY, Sacramento, CA, 95662",38.693622,-121.254353
"216",31408455,"1/19/2016 2:03:32 PM","","Open","311 Service Request","Transportation","Pavement","Pavement","5409 BRANINBURG CT, Sacramento, CA",95608,"5409 BRANINBURG CT, Sacramento, CA, 95608",38.615101,-121.338643
"217",31408565,"1/19/2016 3:02:23 PM","","Open","Open311","Remote Device","Abandoned vehicle","Abandoned Vehicle - 104496","7005 SPRIG DR, Sacramento, CA",95842,"7005 SPRIG DR, Sacramento, CA, 95842",38.694689,-121.357348
"218",31408686,"1/19/2016 3:58:39 PM","","Open","311 Service Request","Code - Zoning","Private Property - Vehicles","Private Property - Vehicle","7728 KATELLA WAY, Sacramento, CA",95621,"7728 KATELLA WAY, Sacramento, CA, 95621",38.708536,-121.326112
"219",31408692,"1/19/2016 4:01:45 PM","","Open","311 Service Request","Code - Zoning","Zoning - Private Property Complaints","Private Property Complaints","6533 LANG AVE, Sacramento, CA",95823,"6533 LANG AVE, Sacramento, CA, 95823",38.507097,-121.454049
"220",31408701,"1/19/2016 4:04:44 PM","","Open","311 Service Request","Code - Housing","Sub-Standard Housing Complaints","Sub-Standard Housing Complaints","3701 S PORT DR,Unit 15, Sacramento, CA",95826,"3701 S PORT DR,Unit 15, Sacramento, CA, 95826",38.546262,-121.362251
"221",31408720,"1/19/2016 4:09:43 PM","","Open","311 Service Request","Code - Zoning","Private Property - Vehicles","Private Property - Vehicle","9230 PARFAIT DR, Sacramento, CA",95826,"9230 PARFAIT DR, Sacramento, CA, 95826",38.550425,-121.355644
"222",31408742,"1/19/2016 4:24:54 PM","","Open","311 Service Request","Code - Housing","Sub-Standard Housing Complaints","Sub-Standard Housing Complaints","5401 GARFIELD AVE,Unit 72, Sacramento, CA",95841,"5401 GARFIELD AVE,Unit 72, Sacramento, CA, 95841",38.663957,-121.336694
"223",31408881,"1/19/2016 6:26:33 PM","","Open","311 Service Request","Code - Housing","Sub-Standard Housing Complaints","Sub-Standard Housing Complaints","2228 EDISON AVE,Unit 28, Sacramento, CA",95821,"2228 EDISON AVE,Unit 28, Sacramento, CA, 95821",38.622668,-121.41277
"224",31408895,"1/19/2016 6:56:43 PM","","Open","311 Service Request","Code - Zoning","Zoning - Private Property Complaints","Private Property Complaints","8712 RAVEN HILL WAY, Sacramento, CA",95843,"8712 RAVEN HILL WAY, Sacramento, CA, 95843",38.727191,-121.387298
"225",31408930,"1/19/2016 10:50:08 PM","","Open","311 Service Request","Code - Zoning","Zoning - Private Property Complaints","Private Property Complaints","9370 SPARKS WAY, Sacramento, CA",95827,"9370 SPARKS WAY, Sacramento, CA, 95827",38.569119,-121.351135
"226",31408940,"1/20/2016 7:10:59 AM","","Open","311 Service Request","Transportation","Street Light Complaints","Street Light Complaints","9252 CALDERA WAY, Sacramento, CA",95826,"9252 CALDERA WAY, Sacramento, CA, 95826",38.558115,-121.355433
"227",31409026,"1/20/2016 8:39:06 AM","","Open","311 Service Request","Code - Housing","Emergency Housing Conditions","Emergency Housing Condition","7040 BANDY RD, Sacramento, CA",95829,"7040 BANDY RD, Sacramento, CA, 95829",38.497748,-121.369704
"228",31409029,"1/20/2016 8:41:38 AM","","Open","311 Service Request","Code - Zoning","Business Area Not Zoned","Business Area Not Zoned","7040 BANDY RD, Sacramento, CA",95829,"7040 BANDY RD, Sacramento, CA, 95829",38.497748,-121.369704
"229",31409059,"1/20/2016 9:02:58 AM","","Open","311 Service Request","Code - Zoning","Zoning - Private Property Complaints","Private Property Complaints","4188 JUSTIN WAY, Sacramento, CA",95826,"4188 JUSTIN WAY, Sacramento, CA, 95826",38.541653,-121.352229
"230",31409061,"1/20/2016 9:04:08 AM","","Open","311 Service Request","Code - Zoning","Zoning - Private Property Complaints","Private Property Complaints","7120 PALADIN WAY, Sacramento, CA",95673,"7120 PALADIN WAY, Sacramento, CA, 95673",38.697227,-121.457815
"231",31409071,"1/20/2016 9:10:59 AM","","Open","311 Service Request","Code - Housing","Sub-Standard Housing Complaints","Sub-Standard Housing Complaints","6601 44TH ST, Sacramento, CA",95823,"6601 44TH ST, Sacramento, CA, 95823",38.507582,-121.455327
"234",31409267,"1/20/2016 10:57:10 AM","","Open","311 Service Request","Code - Housing","Sub-Standard Housing Complaints","Sub-Standard Housing Complaints","2228 EDISON AVE,Unit 44, Sacramento, CA",95821,"2228 EDISON AVE,Unit 44, Sacramento, CA, 95821",38.622668,-121.41277
"235",31409368,"1/20/2016 12:01:21 PM","","Open","311 Service Request","Code - Zoning","Private Property - Vehicles","Private Property - Vehicle","2929 COTTAGE WAY, Sacramento, CA",95825,"2929 COTTAGE WAY, Sacramento, CA, 95825",38.603408,-121.395431
"236",31409398,"1/20/2016 12:16:18 PM","","Open","311 Service Request","Code - Zoning","Zoning - Private Property Complaints","Private Property Complaints","7171 STOCKTON BLVD, Sacramento, CA",95828,"7171 STOCKTON BLVD, Sacramento, CA, 95828",38.460318,-121.411786
"237",31409408,"1/20/2016 12:21:51 PM","","Open","311 Service Request","Code - Zoning","Zoning - Private Property Complaints","Private Property Complaints","6525 FLORIN RD, Sacramento, CA",95828,"6525 FLORIN RD, Sacramento, CA, 95828",38.496093,-121.427946
"238",31409418,"1/20/2016 12:31:12 PM","","Open","311 Service Request","Code - Housing","Sub-Standard Housing Complaints","Sub-Standard Housing Complaints","7051 BOWLING DR,Unit 181, Sacramento, CA",95823,"7051 BOWLING DR,Unit 181, Sacramento, CA, 95823",38.498531,-121.455944
"239",31409430,"1/20/2016 12:36:36 PM","","Open","311 Service Request","Transportation","Tree Complaints","Tree Complaints","6590 FLORIN RD, Sacramento, CA",95828,"6590 FLORIN RD, Sacramento, CA, 95828",38.495944,-121.427183
"240",31409432,"1/20/2016 12:37:07 PM","","Open","311 Service Request","Code - Zoning","Zoning - Private Property Complaints","Private Property Complaints","5555 BRINEF DR, Sacramento, CA",95841,"5555 BRINEF DR, Sacramento, CA, 95841",38.673374,-121.33474
"242",31409588,"1/20/2016 2:10:35 PM","","Open","Open311","Remote Device","Code violation","Zoning violations - 104753","5245 ROBERTSON AVE, Sacramento, CA",95608,"5245 ROBERTSON AVE, Sacramento, CA, 95608",38.620865,-121.341716
"243",31409607,"1/20/2016 2:17:53 PM","","Open","311 Service Request","Code - Housing","Emergency Housing Conditions","Emergency Housing Condition","4024 MARCONI AVE, Sacramento, CA",95821,"4024 MARCONI AVE, Sacramento, CA, 95821",38.617571,-121.370482
"244",31409665,"1/20/2016 2:53:29 PM","","Open","311 Service Request","Code - Housing","Emergency Housing Conditions","Emergency Housing Condition","6129 LEOLA WAY, Sacramento, CA",95824,"6129 LEOLA WAY, Sacramento, CA, 95824",38.514651,-121.451828
"245",31409666,"1/20/2016 2:54:29 PM","","Open","311 Service Request","Code - Housing","Emergency Housing Conditions","Emergency Housing Condition","6607 44TH ST,Unit 105, Sacramento, CA",95823,"6607 44TH ST,Unit 105, Sacramento, CA, 95823",38.507498,-121.455327
"246",31409698,"1/20/2016 3:10:37 PM","","Open","Open311","Remote Device","Code violation","Zoning violations - 104772","5721 ANGELINA AVE, Sacramento, CA",95608,"5721 ANGELINA AVE, Sacramento, CA, 95608",38.6227,-121.331266
"248",31410096,"1/21/2016 9:22:03 AM","","Open","311 Service Request","Code - Housing","Sub-Standard Housing Complaints","Sub-Standard Housing Complaints","3240 BELL ST,Unit 10, Sacramento, CA",95821,"3240 BELL ST,Unit 10, Sacramento, CA, 95821",38.624635,-121.410582
"249",31410112,"1/21/2016 9:36:40 AM","","Open","311 Service Request","Code - Zoning","Zoning - Private Property Complaints","Private Property Complaints","2926 CALIFORNIA AVE, Sacramento, CA",95608,"2926 CALIFORNIA AVE, Sacramento, CA, 95608",38.617726,-121.321666
"251",31410437,"1/21/2016 12:45:19 PM","","Open","311 Service Request","Code - Zoning","Private Property - Vehicles","Private Property - Vehicle","6901 SILVERTHORNE CIR, Sacramento, CA",95842,"6901 SILVERTHORNE CIR, Sacramento, CA, 95842",38.686849,-121.343652
"252",31410494,"1/21/2016 1:14:12 PM","","Open","311 Service Request","Transportation","Other","Transportation - Other","4457 BELA WAY, Sacramento, CA",95608,"4457 BELA WAY, Sacramento, CA, 95608",38.645679,-121.337893
"253",31410503,"1/21/2016 1:17:59 PM","","Open","311 Service Request","Code - Housing","Sub-Standard Housing Complaints","Sub-Standard Housing Complaints","6125 BURNS WAY, Sacramento, CA",95824,"6125 BURNS WAY, Sacramento, CA, 95824",38.51466,-121.450964
"254",31410540,"1/21/2016 1:37:30 PM","","Open","311 Service Request","Transportation","Pavement","Pavement","8642 BRIARBROOK CIR, Sacramento, CA",95662,"8642 BRIARBROOK CIR, Sacramento, CA, 95662",38.695969,-121.24269
"255",31410813,"1/21/2016 4:17:41 PM","","Open","311 Service Request","Code - Housing","Sub-Standard Housing Complaints","Sub-Standard Housing Complaints","6532 GRATTAN WAY, Sacramento, CA",95660,"6532 GRATTAN WAY, Sacramento, CA, 95660",38.684402,-121.380621
"257",31410872,"1/21/2016 5:10:28 PM","","Open","Open311","Remote Device","Code violation","Zoning violations - 104996","2249 MARCONI AVE, Sacramento, CA",95821,"2249 MARCONI AVE, Sacramento, CA, 95821",38.618169,-121.413178
"258",31410886,"1/21/2016 5:20:36 PM","","Open","Open311","Remote Device","Illegal dumping","JUNK AND RUBBISH","8701 GREENBACK LN, Sacramento, CA",95662,"8701 GREENBACK LN, Sacramento, CA, 95662",38.678554,-121.235015
"259",31410908,"1/21/2016 6:00:38 PM","","Open","Open311","Remote Device","Other","Other - 105009","9009 TERRAMORE DR, Sacramento, CA",95662,"9009 TERRAMORE DR, Sacramento, CA, 95662",38.687121,-121.247939
"260",31411087,"1/22/2016 9:06:41 AM","","Open","311 Service Request","Code - Housing","Sub-Standard Housing Complaints","Sub-Standard Housing Complaints","3425 ORANGE GROVE AVE, Sacramento, CA",95660,"3425 ORANGE GROVE AVE, Sacramento, CA, 95660",38.646853,-121.383664
"261",31411137,"1/22/2016 9:36:57 AM","","Open","311 Service Request","Code - Zoning","Zoning - Private Property Complaints","Private Property Complaints","12750 IVIE RD, Sacramento, CA",95638,"12750 IVIE RD, Sacramento, CA, 95638",38.293599,-121.23893
"262",31411196,"1/22/2016 10:15:55 AM","","Open","311 Service Request","Code - Zoning","Zoning - Private Property Complaints","Private Property Complaints","2620 HURLEY WAY,Unit C, Sacramento, CA",95864,"2620 HURLEY WAY,Unit C, Sacramento, CA, 95864",38.588647,-121.401103
"263",31411215,"1/22/2016 10:36:56 AM","","Open","311 Service Request","Transportation","Tree Complaints","Tree Complaints","4140 ERNESTINE WAY, Sacramento, CA",95660,"4140 ERNESTINE WAY, Sacramento, CA, 95660",38.680412,-121.367078
"264",31411221,"1/22/2016 10:40:39 AM","","Open","Open311","Remote Device","Other","Other - 105081","2508 GARFIELD AVE, Sacramento, CA",95608,"2508 GARFIELD AVE, Sacramento, CA, 95608",38.6107,-121.336851
"265",31411270,"1/22/2016 11:15:59 AM","","Open","311 Service Request","Code - Housing","Sub-Standard Housing Complaints","Sub-Standard Housing Complaints","7045 LINWOOD WAY, Sacramento, CA",95828,"7045 LINWOOD WAY, Sacramento, CA, 95828",38.498961,-121.420154
"266",31411276,"1/22/2016 11:20:24 AM","","Open","311 Service Request","Code - Zoning","Zoning - Private Property Complaints","Private Property Complaints","7041 LINWOOD WAY, Sacramento, CA",95828,"7041 LINWOOD WAY, Sacramento, CA, 95828",38.499031,-121.420288
"267",31411278,"1/22/2016 11:21:57 AM","","Open","311 Service Request","Code - Zoning","Private Property - Animals","Private Property - Animal","7041 LINWOOD WAY, Sacramento, CA",95828,"7041 LINWOOD WAY, Sacramento, CA, 95828",38.499031,-121.420288
"268",31411398,"1/22/2016 12:41:05 PM","","Open","311 Service Request","Code - Housing","Emergency Housing Conditions","Emergency Housing Condition","4441 LIVINGSTON WAY, Sacramento, CA",95823,"4441 LIVINGSTON WAY, Sacramento, CA, 95823",38.505255,-121.448398
"269",31411449,"1/22/2016 1:14:29 PM","","Open","311 Service Request","Transportation","Other","Transportation - Other","5673 ODEA DR, Sacramento, CA",95824,"5673 ODEA DR, Sacramento, CA, 95824",38.523195,-121.45629
"270",31411490,"1/22/2016 1:50:15 PM","","Open","311 Service Request","Transportation","Other","Transportation - Other","2135 BUTANO DR, Sacramento, CA",95825,"2135 BUTANO DR, Sacramento, CA, 95825",38.605414,-121.386978
"271",31411616,"1/22/2016 3:18:40 PM","","Open","311 Service Request","Code - Zoning","Zoning - Private Property Complaints","Private Property Complaints","6404 CRAIGHURST DR, Sacramento, CA",95660,"6404 CRAIGHURST DR, Sacramento, CA, 95660",38.683668,-121.367567
"272",31411621,"1/22/2016 3:22:33 PM","","Open","311 Service Request","Code - Zoning","Zoning - Private Property Complaints","Private Property Complaints","7737 VALLEY WOOD DR, Sacramento, CA",95828,"7737 VALLEY WOOD DR, Sacramento, CA, 95828",38.476674,-121.386178
"273",31411643,"1/22/2016 3:36:55 PM","","Open","311 Service Request","Transportation","Street Light Complaints","Street Light Complaints","3801 43RD AVE, Sacramento, CA",95824,"3801 43RD AVE, Sacramento, CA, 95824",38.513903,-121.465219
"274",31411675,"1/22/2016 3:59:47 PM","","Open","311 Service Request","Code - Zoning","Private Property - Vehicles","Private Property - Vehicle","4121 TALLYHO DR, Sacramento, CA",95826,"4121 TALLYHO DR, Sacramento, CA, 95826",38.541466,-121.356584
"275",31411735,"1/22/2016 4:50:35 PM","","Open","Open311","Remote Device","Other","Other - 105195","3432 LEATHA WAY, Sacramento, CA",95821,"3432 LEATHA WAY, Sacramento, CA, 95821",38.628078,-121.390212
"277",31411878,"1/23/2016 11:20:29 AM","","Open","Open311","Remote Device","Public right of way","Public right of way - 105254","3600 THORNHILL DR, Sacramento, CA",95826,"3600 THORNHILL DR, Sacramento, CA, 95826",38.547217,-121.36325
"278",31412011,"1/24/2016 1:11:32 AM","","Open","Open311","Remote Device","Graffiti","Graffiti - 105344","2310 WYDA WAY, Sacramento, CA",95825,"2310 WYDA WAY, Sacramento, CA, 95825",38.599973,-121.410062
"279",31412130,"1/24/2016 8:31:24 PM","","Open","Open311","Remote Device","Illegal dumping","Illegal dumping - 105477","5826 POMEGRANATE AVE, Sacramento, CA",95823,"5826 POMEGRANATE AVE, Sacramento, CA, 95823",38.484222,-121.435879
"280",31412156,"1/25/2016 7:05:25 AM","","Open","311 Service Request","Code - Zoning","Private Property - Vehicles","Private Property - Vehicle","3826 EL CAMINO AVE, Sacramento, CA",95821,"3826 EL CAMINO AVE, Sacramento, CA, 95821",38.610275,-121.375073
"281",31412158,"1/25/2016 7:31:30 AM","","Open","Open311","Remote Device","Code violation","Zoning violations - 105538","7515 HARDY ST, Sacramento, CA",95662,"7515 HARDY ST, Sacramento, CA, 95662",38.701517,-121.238027
"282",31412162,"1/25/2016 7:40:38 AM","","Open","Open311","Remote Device","Code violation","Zoning violations - 105543","7427 HARDY ST, Sacramento, CA",95662,"7427 HARDY ST, Sacramento, CA, 95662",38.700669,-121.238013
"283",31412194,"1/25/2016 8:15:26 AM","","Open","311 Service Request","Transportation","Other","Transportation - Other","1230 G ST, Sacramento, CA",95673,"1230 G ST, Sacramento, CA, 95673",38.680015,-121.437794
"284",31412235,"1/25/2016 8:50:06 AM","","Open","311 Service Request","Code - Zoning","Zoning - Private Property Complaints","Private Property Complaints","8336 AUBERRY DR, Sacramento, CA",95828,"8336 AUBERRY DR, Sacramento, CA, 95828",38.460133,-121.399009
"285",31412264,"1/25/2016 9:01:22 AM","","Open","Open311","Remote Device","Abandoned vehicle","Abandoned Vehicle - 105556","4512 MARBLE WAY, Sacramento, CA",95608,"4512 MARBLE WAY, Sacramento, CA, 95608",38.64437,-121.321814
"286",31412303,"1/25/2016 9:23:40 AM","","Open","311 Service Request","Code - Zoning","Zoning - Private Property Complaints","Private Property Complaints","3600 KARL DR, Sacramento, CA",95660,"3600 KARL DR, Sacramento, CA, 95660",38.673838,-121.38289
"287",31412399,"1/25/2016 10:17:11 AM","","Open","311 Service Request","Code - Housing","Emergency Housing Conditions","Emergency Housing Condition","7243 LARCHMONT DR, Sacramento, CA",95660,"7243 LARCHMONT DR, Sacramento, CA, 95660",38.699543,-121.376567
"288",31412471,"1/25/2016 11:02:21 AM","","Open","311 Service Request","Code - Zoning","Zoning - Private Property Complaints","Private Property Complaints","7613 WOODGLEN DR, Sacramento, CA",95628,"7613 WOODGLEN DR, Sacramento, CA, 95628",38.643437,-121.268207
"289",31412730,"1/25/2016 1:30:31 PM","","Open","311 Service Request","Transportation","Pothole Sidewalk Complaints","Pothole Sidewalk Complaints","7314 ELSIE AVE, Sacramento, CA",95823,"7314 ELSIE AVE, Sacramento, CA, 95823",38.474339,-121.418969
"290",31412792,"1/25/2016 2:01:17 PM","","Open","Open311","Remote Device","Street lighting","Street lighting - 105617","8660 HILLMON CT, Sacramento, CA",95828,"8660 HILLMON CT, Sacramento, CA, 95828",38.492244,-121.384421
"291",31412855,"1/25/2016 2:41:24 PM","","Open","Open311","Remote Device","Illegal dumping","Illegal dumping - 105628","6509 WESLEY AVE, Sacramento, CA",95823,"6509 WESLEY AVE, Sacramento, CA, 95823",38.507659,-121.460963
"292",31412860,"1/25/2016 2:45:20 PM","","Open","311 Service Request","Code - Housing","Sub-Standard Housing Complaints","Sub-Standard Housing Complaints","7742 ROBINETTE RD, Sacramento, CA",95828,"7742 ROBINETTE RD, Sacramento, CA, 95828",38.476955,-121.410527
"293",31412940,"1/25/2016 3:33:12 PM","","Open","311 Service Request","Transportation","Encroachment Violation","Encroachment Violation","3401 HUMBOLDT WAY, Sacramento, CA",95864,"3401 HUMBOLDT WAY, Sacramento, CA, 95864",38.585377,-121.386012
"294",31412976,"1/25/2016 3:51:19 PM","","Open","Open311","Remote Device","Illegal dumping","Illegal dumping - 105652","7609 WOODGLEN DR, Sacramento, CA",95628,"7609 WOODGLEN DR, Sacramento, CA, 95628",38.643437,-121.268207
"295",31413027,"1/25/2016 4:22:56 PM","","Open","311 Service Request","Code - Zoning","Private Property - Vehicles","Private Property - Vehicle","3605 STEAM CT, Sacramento, CA",95827,"3605 STEAM CT, Sacramento, CA, 95827",38.553521,-121.34099
"296",31413129,"1/25/2016 6:25:13 PM","","Open","311 Service Request","Code - Housing","Emergency Housing Conditions","Emergency Housing Condition","5545 MARCONI AVE,Unit 214, Sacramento, CA",95608,"5545 MARCONI AVE,Unit 214, Sacramento, CA, 95608",38.617217,-121.333555
"297",31413146,"1/25/2016 6:50:35 PM","","Open","Open311","Remote Device","Code violation","Zoning violations - 105680","5642 TUMBRIDGE WAY, Sacramento, CA",95608,"5642 TUMBRIDGE WAY, Sacramento, CA, 95608",38.603058,-121.332818
"298",31413398,"1/26/2016 9:51:28 AM","","Open","311 Service Request","Code - Zoning","Zoning - Private Property Complaints","Private Property Complaints","2401 GWEN DR, Sacramento, CA",95825,"2401 GWEN DR, Sacramento, CA, 95825",38.608173,-121.404657
"299",31413464,"1/26/2016 10:32:44 AM","","Open","311 Service Request","Code - Housing","Sub-Standard Housing Complaints","Sub-Standard Housing Complaints","1100 WAYLAND AVE, Sacramento, CA",95825,"1100 WAYLAND AVE, Sacramento, CA, 95825",38.585567,-121.407734
"300",31413569,"1/26/2016 11:31:22 AM","","Open","Open311","Remote Device","Code violation","Zoning violations - 105803","8372 VINTAGE PARK DR, Sacramento, CA",95828,"8372 VINTAGE PARK DR, Sacramento, CA, 95828",38.454442,-121.378167
"301",31413583,"1/26/2016 11:40:35 AM","","Open","Open311","Remote Device","Code violation","Zoning violations - 105806","8292 BEDFORD COVE WAY, Sacramento, CA",95828,"8292 BEDFORD COVE WAY, Sacramento, CA, 95828",38.457517,-121.380623
"302",31413791,"1/26/2016 1:31:27 PM","","Open","311 Service Request","Transportation","Street Light Complaints","Street Light Complaints","5000 TAMARISK CT, Sacramento, CA",95842,"5000 TAMARISK CT, Sacramento, CA, 95842",38.683121,-121.3472
"303",31413812,"1/26/2016 1:43:22 PM","","Open","Open311","Remote Device","Code violation","Zoning violations - 105828","4915 ANDREA BLVD, Sacramento, CA",95842,"4915 ANDREA BLVD, Sacramento, CA, 95842",38.68721,-121.350569
"304",31414060,"1/26/2016 3:53:47 PM","","Open","311 Service Request","Code - Housing","Sub-Standard Housing Complaints","Sub-Standard Housing Complaints","4741 39TH AVE, Sacramento, CA",95824,"4741 39TH AVE, Sacramento, CA, 95824",38.517376,-121.451517
"305",31414165,"1/26/2016 5:41:17 PM","","Open","311 Service Request","Code - Zoning","Transient Complaints","Transient Complaints","4506 MERGANSER CT, Sacramento, CA",95842,"4506 MERGANSER CT, Sacramento, CA, 95842",38.693153,-121.359322
"306",31414206,"1/26/2016 9:04:53 PM","","Open","311 Service Request","Code - Zoning","Private Property - Vehicles","Private Property - Vehicle","1720 I ST, Sacramento, CA",95673,"1720 I ST, Sacramento, CA, 95673",38.683503,-121.426139
"307",31414278,"1/27/2016 8:20:00 AM","","Open","311 Service Request","Code - Housing","Emergency Housing Conditions","Emergency Housing Condition","2223 MARCONI AVE, Sacramento, CA",95821,"2223 MARCONI AVE, Sacramento, CA, 95821",38.618195,-121.415061
"308",31414287,"1/27/2016 8:28:49 AM","","Open","311 Service Request","Transportation","Street Light Complaints","Street Light Complaints","3367 LERWICK RD, Sacramento, CA",95821,"3367 LERWICK RD, Sacramento, CA, 95821",38.633803,-121.386517
"310",31414346,"1/27/2016 9:11:55 AM","","Open","311 Service Request","Code - Housing","Sub-Standard Housing Complaints","Sub-Standard Housing Complaints","3100 HOWE AVE,Unit 4C, Sacramento, CA",95821,"3100 HOWE AVE,Unit 4C, Sacramento, CA, 95821",38.621715,-121.415279
"312",31414430,"1/27/2016 10:06:32 AM","","Open","311 Service Request","Code - Zoning","Business Area Not Zoned","Business Area Not Zoned","5620 WATT AVE, Sacramento, CA",95660,"5620 WATT AVE, Sacramento, CA, 95660",38.668884,-121.382802
"313",31414509,"1/27/2016 10:53:59 AM","","Open","311 Service Request","Code - Zoning","Zoning - Private Property Complaints","Private Property Complaints","8121 MADISON AVE, Sacramento, CA",95628,"8121 MADISON AVE, Sacramento, CA, 95628",38.643381,-121.264111
"314",31414519,"1/27/2016 10:59:58 AM","","Open","311 Service Request","Code - Zoning","Transient Complaints","Transient Complaints","4900 ROSEVILLE RD, Sacramento, CA",95660,"4900 ROSEVILLE RD, Sacramento, CA, 95660",38.655069,-121.386993
"315",31414521,"1/27/2016 11:01:11 AM","","Open","311 Service Request","Transportation","Graffiti Private Property","Graffiti Private Property","4900 ROSEVILLE RD, Sacramento, CA",95660,"4900 ROSEVILLE RD, Sacramento, CA, 95660",38.655069,-121.386993
"316",31414527,"1/27/2016 11:05:32 AM","","Open","311 Service Request","Code - Zoning","Private Property - Vehicles","Private Property - Vehicle","6456 LARRY WAY, Sacramento, CA",95660,"6456 LARRY WAY, Sacramento, CA, 95660",38.684111,-121.37783
"317",31414535,"1/27/2016 11:09:58 AM","","Open","311 Service Request","Animal Care","Stray Animals","Stray Animal","7405 WINDING WAY, Sacramento, CA",95628,"7405 WINDING WAY, Sacramento, CA, 95628",38.643437,-121.268207
"318",31414780,"1/27/2016 1:56:53 PM","","Open","311 Service Request","Code - Housing","Emergency Housing Conditions","Emergency Housing Condition","5628 CYPRESS AVE, Sacramento, CA",95608,"5628 CYPRESS AVE, Sacramento, CA, 95608",38.638852,-121.332763
"319",31414801,"1/27/2016 2:02:49 PM","","Open","311 Service Request","Code - Abandon Vehicles","Abandoned Vehicles","Abandoned Vehicle","5925 RAMPART DR, Sacramento, CA",95608,"5925 RAMPART DR, Sacramento, CA, 95608",38.647887,-121.325082
"320",31414816,"1/27/2016 2:15:52 PM","","Open","311 Service Request","Code - Housing","Sub-Standard Housing Complaints","Sub-Standard Housing Complaints","5720 HILLSDALE BLVD, Sacramento, CA",95842,"5720 HILLSDALE BLVD, Sacramento, CA, 95842",38.670136,-121.360548
"321",31414820,"1/27/2016 2:21:25 PM","","Open","311 Service Request","Code - Zoning","Zoning - Private Property Complaints","Private Property Complaints","8526 NEW STAR CIR, Sacramento, CA",95828,"8526 NEW STAR CIR, Sacramento, CA, 95828",38.453865,-121.388067
"322",31414831,"1/27/2016 2:31:23 PM","","Open","Open311","Remote Device","Code violation","Zoning violations - 106039","5105 VISTA SIERRA DR, Sacramento, CA",95843,"5105 VISTA SIERRA DR, Sacramento, CA, 95843",38.519878,-121.465096
"323",31414882,"1/27/2016 3:11:34 PM","","Open","311 Service Request","Code - Zoning","Zoning - Private Property Complaints","Private Property Complaints","4300 MASON LN, Sacramento, CA",95821,"4300 MASON LN, Sacramento, CA, 95821",38.642774,-121.348866
"324",31414896,"1/27/2016 3:21:21 PM","","Open","Open311","Remote Device","Graffiti","Graffiti - 106049","10770 STOCKTON BLVD, Sacramento, CA",95757,"10770 STOCKTON BLVD, Sacramento, CA, 95757",38.3649,-121.351361
"325",31414968,"1/27/2016 4:37:45 PM","","Open","311 Service Request","Code - Zoning","Private Property - Vehicles","Private Property - Vehicle","2105 JUANITA LN, Sacramento, CA",95825,"2105 JUANITA LN, Sacramento, CA, 95825",38.603562,-121.408894
"326",31415055,"1/27/2016 8:30:40 PM","","Open","Open311","Remote Device","Street lighting","Street lighting - 106085","8242 LONELY HILL WAY, Sacramento, CA",95843,"8242 LONELY HILL WAY, Sacramento, CA, 95843",38.719687,-121.369453
"327",31415058,"1/27/2016 9:11:40 PM","","Open","311 Service Request","Code - Zoning","Zoning - Private Property Complaints","Private Property Complaints","9219 LUCCHESI DR, Sacramento, CA",95829,"9219 LUCCHESI DR, Sacramento, CA, 95829",38.456375,-121.356918
"328",31415060,"1/27/2016 9:34:01 PM","","Open","311 Service Request","Code - Housing","Emergency Housing Conditions","Emergency Housing Condition","3664 VAN OWEN ST, Sacramento, CA",95660,"3664 VAN OWEN ST, Sacramento, CA, 95660",38.686372,-121.379543
"329",31415115,"1/28/2016 8:19:10 AM","","Open","311 Service Request","Code - Housing","Sub-Standard Housing Complaints","Sub-Standard Housing Complaints","7401 POWER INN RD,Unit 235, Sacramento, CA",95828,"7401 POWER INN RD,Unit 235, Sacramento, CA, 95828",38.472674,-121.405177
"330",31415123,"1/28/2016 8:26:26 AM","","Open","311 Service Request","Code - Housing","Emergency Housing Conditions","Emergency Housing Condition","9509 FOLSOM BLVD, Sacramento, CA",95827,"9509 FOLSOM BLVD, Sacramento, CA, 95827",38.568354,-121.344641
"331",31415139,"1/28/2016 8:36:33 AM","","Open","311 Service Request","Code - Housing","Sub-Standard Housing Complaints","Sub-Standard Housing Complaints","7401 POWER INN RD, Sacramento, CA",95828,"7401 POWER INN RD, Sacramento, CA, 95828",38.489391,-121.408799
"332",31415232,"1/28/2016 9:51:53 AM","","Open","311 Service Request","Transportation","Street Light Complaints","Street Light Complaints","8705 CRYSTAL RIVER WAY, Sacramento, CA",95828,"8705 CRYSTAL RIVER WAY, Sacramento, CA, 95828",38.475572,-121.381159
"333",31415432,"1/28/2016 12:23:38 PM","","Open","311 Service Request","Code - Zoning","Private Property - Vehicles","Private Property - Vehicle","8223 BLUEHAVEN CT, Sacramento, CA",95843,"8223 BLUEHAVEN CT, Sacramento, CA, 95843",38.719102,-121.378176
"334",31415612,"1/28/2016 2:44:43 PM","","Open","311 Service Request","Code - Zoning","Private Property - Vehicles","Private Property - Vehicle","3600 KARL DR, Sacramento, CA",95660,"3600 KARL DR, Sacramento, CA, 95660",38.673838,-121.38289
"335",31415660,"1/28/2016 3:30:35 PM","","Open","Open311","Remote Device","Graffiti","Graffiti - 106196","2721 EL CAMINO AVE, Sacramento, CA",95821,"2721 EL CAMINO AVE, Sacramento, CA, 95821",38.61054,-121.398497
"336",31415694,"1/28/2016 3:50:33 PM","","Open","311 Service Request","Transportation","Graffiti Private Property","Graffiti Private Property","9286 GREENBACK LN, Sacramento, CA",95662,"9286 GREENBACK LN, Sacramento, CA, 95662",38.678121,-121.208001
"340",31415888,"1/28/2016 9:29:16 PM","","Open","311 Service Request","Transportation","Street Light Complaints","Street Light Complaints","8428 WINDFORD WAY, Sacramento, CA",95843,"8428 WINDFORD WAY, Sacramento, CA, 95843",38.722739,-121.34279
"341",31415913,"1/29/2016 6:55:37 AM","","Open","Open311","Remote Device","Code violation","Zoning violations - 106263","2101 MADERA RD, Sacramento, CA",95825,"2101 MADERA RD, Sacramento, CA, 95825",38.603474,-121.406394
"342",31415995,"1/29/2016 9:01:20 AM","","Open","Open311","Remote Device","Code violation","Zoning violations - 106303","2821 HOWE AVE, Sacramento, CA",95821,"2821 HOWE AVE, Sacramento, CA, 95821",38.616925,-121.415359
"343",31416083,"1/29/2016 10:14:22 AM","","Open","311 Service Request","Transportation","Street Light Complaints","Street Light Complaints","8901 MONTOYA ST, Sacramento, CA",95826,"8901 MONTOYA ST, Sacramento, CA, 95826",38.559247,-121.371288
"344",31416222,"1/29/2016 11:50:39 AM","","Open","Open311","Remote Device","Graffiti","Graffiti - 106330","2875 FULTON AVE, Sacramento, CA",95821,"2875 FULTON AVE, Sacramento, CA, 95821",38.617535,-121.401489
"345",31416240,"1/29/2016 12:01:58 PM","","Open","311 Service Request","Code - Zoning","Business Area Not Zoned","Business Area Not Zoned","4624 SHAFTESBURY CT, Sacramento, CA",95608,"4624 SHAFTESBURY CT, Sacramento, CA, 95608",38.648272,-121.337293
"346",31416330,"1/29/2016 1:08:35 PM","","Open","311 Service Request","Code - Zoning","Zoning - Private Property Complaints","Private Property Complaints","7413 MIRAGE CT, Sacramento, CA",95842,"7413 MIRAGE CT, Sacramento, CA, 95842",38.700248,-121.353573
"347",31416335,"1/29/2016 1:12:38 PM","","Open","311 Service Request","Code - Zoning","Business Area Not Zoned","Business Area Not Zoned","6633 W 6TH ST, Sacramento, CA",95673,"6633 W 6TH ST, Sacramento, CA, 95673",38.686256,-121.475291
"349",31416484,"1/29/2016 3:12:34 PM","","Open","311 Service Request","Code - Housing","Sub-Standard Housing Complaints","Sub-Standard Housing Complaints","5401 GARFIELD AVE,Unit 74, Sacramento, CA",95841,"5401 GARFIELD AVE,Unit 74, Sacramento, CA, 95841",38.663957,-121.336694
"350",31416628,"1/29/2016 6:24:02 PM","","Open","311 Service Request","Animal Care","Owned Animals","Owned Animal","6900 AIRPORT BLVD, Sacramento, CA",95837,"6900 AIRPORT BLVD, Sacramento, CA, 95837",38.688645,-121.594111
"351",31416673,"1/30/2016 3:51:05 AM","","Open","311 Service Request","Code - Housing","Sub-Standard Housing Complaints","Sub-Standard Housing Complaints","4661 ORANGE GROVE AVE, Sacramento, CA",95841,"4661 ORANGE GROVE AVE, Sacramento, CA, 95841",38.648854,-121.356422
"352",31416674,"1/30/2016 4:10:28 AM","","Open","311 Service Request","Code - Zoning","Private Property - Vehicles","Private Property - Vehicle","5928 20TH ST, Sacramento, CA",95673,"5928 20TH ST, Sacramento, CA, 95673",38.674967,-121.419801
"353",31416694,"1/30/2016 9:41:06 AM","","Open","311 Service Request","Code - Zoning","Zoning - Private Property Complaints","Private Property Complaints","6524 CHANNING DR, Sacramento, CA",95660,"6524 CHANNING DR, Sacramento, CA, 95660",38.685767,-121.379865
"354",31416700,"1/30/2016 10:20:50 AM","","Open","311 Service Request","Code - Zoning","Zoning - Private Property Complaints","Private Property Complaints","7944 ORANGE AVE, Sacramento, CA",95628,"7944 ORANGE AVE, Sacramento, CA, 95628",38.647532,-121.271627
"355",31416762,"1/30/2016 3:30:40 PM","","Open","Open311","Remote Device","Other","Other - 106511","4810 MARY KATE DR, Sacramento, CA",95841,"4810 MARY KATE DR, Sacramento, CA, 95841",38.666601,-121.352626
"356",31416785,"1/30/2016 5:08:09 PM","","Open","311 Service Request","Transportation","Other","Transportation - Other","3808 BAIRNSDALE WAY, Sacramento, CA",95826,"3808 BAIRNSDALE WAY, Sacramento, CA, 95826",38.542711,-121.370735
"357",31416808,"1/30/2016 6:51:55 PM","","Open","311 Service Request","Code - Zoning","Private Property - Vehicles","Private Property - Vehicle","6438 6TH ST, Sacramento, CA",95673,"6438 6TH ST, Sacramento, CA, 95673",38.684251,-121.452175
"358",31416826,"1/30/2016 10:32:05 PM","","Open","311 Service Request","Code - Housing","Sub-Standard Housing Complaints","Sub-Standard Housing Complaints","5900 WALERGA RD,Unit 2, Sacramento, CA",95842,"5900 WALERGA RD,Unit 2, Sacramento, CA, 95842",38.673099,-121.357205
"359",31416865,"1/31/2016 11:12:35 AM","","Open","311 Service Request","Code - Zoning","Private Property - Vehicles","Private Property - Vehicle","2206 LANDON LN, Sacramento, CA",95825,"2206 LANDON LN, Sacramento, CA, 95825",38.605408,-121.395522
"360",31416866,"1/31/2016 11:15:17 AM","","Open","311 Service Request","Code - Zoning","Business Area Not Zoned","Business Area Not Zoned","2206 LANDON LN, Sacramento, CA",95825,"2206 LANDON LN, Sacramento, CA, 95825",38.605408,-121.395522
"361",31416878,"1/31/2016 12:33:50 PM","","Open","311 Service Request","Code - Zoning","Private Property - Animals","Private Property - Animal","6943 SPRIG DR, Sacramento, CA",95842,"6943 SPRIG DR, Sacramento, CA, 95842",38.693992,-121.357363
"364",31416935,"1/31/2016 5:01:24 PM","","Open","Open311","Remote Device","Code violation","Zoning violations - 106655","6038 W 6TH ST, Sacramento, CA",95673,"6038 W 6TH ST, Sacramento, CA, 95673",38.678098,-121.475303
"365",31416942,"1/31/2016 5:16:43 PM","","Open","311 Service Request","Code - Abandon Vehicles","Abandoned Vehicles","Abandoned Vehicle","7006 CHANDLER DR, Sacramento, CA",95828,"7006 CHANDLER DR, Sacramento, CA, 95828",38.498862,-121.423253
"366",31416976,"1/31/2016 8:48:36 PM","","Open","311 Service Request","Transportation","On-Call - DOT","On-Call - DOT","8016 STEVENSON AVE, Sacramento, CA",95828,"8016 STEVENSON AVE, Sacramento, CA, 95828",38.465333,-121.410662
"368",31417166,"2/1/2016 9:21:23 AM","","Open","Open311","Remote Device","Other","Other - 106730","9440 BAR DU LN, Sacramento, CA",95829,"9440 BAR DU LN, Sacramento, CA, 95829",38.471208,-121.341902
"369",31417174,"2/1/2016 9:25:58 AM","","Open","311 Service Request","Transportation","Encroachment Violation","Encroachment Violation","4092 ANDEDON CIR, Sacramento, CA",95826,"4092 ANDEDON CIR, Sacramento, CA, 95826",38.544408,-121.351844
"370",31417188,"2/1/2016 9:33:07 AM","","Open","311 Service Request","Transportation","Other","Transportation - Other","3914 POUNDS AVE, Sacramento, CA",95821,"3914 POUNDS AVE, Sacramento, CA, 95821",38.62706,-121.373103
"371",31417232,"2/1/2016 10:00:38 AM","","Open","Open311","Remote Device","Other","Other - 106736","5601 NONA WAY, Sacramento, CA",95824,"5601 NONA WAY, Sacramento, CA, 95824",38.524916,-121.454364
"372",31417303,"2/1/2016 10:40:40 AM","","Open","Open311","Remote Device","Illegal dumping","Illegal dumping - 106750","6155 39TH ST, Sacramento, CA",95824,"6155 39TH ST, Sacramento, CA, 95824",38.514525,-121.462679
"373",31417383,"2/1/2016 11:28:07 AM","","Open","311 Service Request","Code - Zoning","Private Property - Vehicles","Private Property - Vehicle","7410 SAN NITA WAY, Sacramento, CA",95628,"7410 SAN NITA WAY, Sacramento, CA, 95628",38.643437,-121.268207
"374",31417433,"2/1/2016 12:03:47 PM","","Open","311 Service Request","Code - Housing","Emergency Housing Conditions","Emergency Housing Condition","5151 MYRTLE AVE,Unit 4, Sacramento, CA",95841,"5151 MYRTLE AVE,Unit 4, Sacramento, CA, 95841",38.653667,-121.345193
"375",31417441,"2/1/2016 12:10:28 PM","","Open","Open311","Remote Device","Abandoned vehicle","Abandoned Vehicle - 106768","4105 JUSTIN WAY, Sacramento, CA",95826,"4105 JUSTIN WAY, Sacramento, CA, 95826",38.543895,-121.349822
"376",31417442,"2/1/2016 12:11:19 PM","","Open","Open311","Remote Device","Abandoned vehicle","Abandoned Vehicle - 106769","4108 JUSTIN WAY, Sacramento, CA",95826,"4108 JUSTIN WAY, Sacramento, CA, 95826",38.543609,-121.349976
"377",31417615,"2/1/2016 2:11:16 PM","","Open","Open311","Remote Device","Tree","Tree - 106775","7070 STOCKTON BLVD, Sacramento, CA",95823,"7070 STOCKTON BLVD, Sacramento, CA, 95823",38.498505,-121.43034
"378",31417617,"2/1/2016 2:12:24 PM","","Open","311 Service Request","Code - Housing","Sub-Standard Housing Complaints","Sub-Standard Housing Complaints","5515 KEONCREST CIR,Unit 4, Sacramento, CA",95841,"5515 KEONCREST CIR,Unit 4, Sacramento, CA, 95841",38.671429,-121.335658
"379",31417631,"2/1/2016 2:25:55 PM","","Open","311 Service Request","Transportation","Median Right of Way Landscape Complaints","Median Right of Way Landscape Complaints","801 WATT AVE, Sacramento, CA",95864,"801 WATT AVE, Sacramento, CA, 95864",38.57861,-121.382925
"380",31417635,"2/1/2016 2:30:35 PM","","Open","Open311","Remote Device","Road traffic sign","Road traffic sign - 106780","5925 RAMPART DR,Unit 1, Sacramento, CA",95608,"5925 RAMPART DR,Unit 1, Sacramento, CA, 95608",38.647887,-121.325082
"381",31417647,"2/1/2016 2:38:42 PM","","Open","311 Service Request","Code - Abandon Vehicles","Abandoned Vehicles","Abandoned Vehicle","4451 WOODSON AVE, Sacramento, CA",95821,"4451 WOODSON AVE, Sacramento, CA, 95821",38.629432,-121.36019
"382",31417667,"2/1/2016 2:54:43 PM","","Open","311 Service Request","Code - Housing","Sub-Standard Housing Complaints","Sub-Standard Housing Complaints","3401 BALMORAL DR,Unit 13, Sacramento, CA",95821,"3401 BALMORAL DR,Unit 13, Sacramento, CA, 95821",38.611564,-121.385459
"383",31417680,"2/1/2016 3:05:16 PM","","Open","311 Service Request","Code - Housing","Sub-Standard Housing Complaints","Sub-Standard Housing Complaints","3040 HOWE AVE,Unit 35, Sacramento, CA",95821,"3040 HOWE AVE,Unit 35, Sacramento, CA, 95821",38.620537,-121.415203
"384",31417689,"2/1/2016 3:10:33 PM","","Open","Open311","Remote Device","Code violation","Zoning violations - 106804","7444 LA MANCHA WAY, Sacramento, CA",95823,"7444 LA MANCHA WAY, Sacramento, CA, 95823",38.487087,-121.437347
"385",31417701,"2/1/2016 3:20:46 PM","","Open","311 Service Request","Code - Zoning","Zoning - Private Property Complaints","Private Property Complaints","6125 LEOLA WAY, Sacramento, CA",95824,"6125 LEOLA WAY, Sacramento, CA, 95824",38.51473,-121.451827
"386",31417703,"2/1/2016 3:21:18 PM","","Open","Open311","Remote Device","Abandoned vehicle","Abandoned Vehicle - 106806","6400 EVEREST WAY, Sacramento, CA",95842,"6400 EVEREST WAY, Sacramento, CA, 95842",38.68183,-121.344243
"387",31417705,"2/1/2016 3:23:44 PM","","Open","311 Service Request","Code - Zoning","Business Area Not Zoned","Business Area Not Zoned","8646 CRYSTAL RIVER WAY, Sacramento, CA",95828,"8646 CRYSTAL RIVER WAY, Sacramento, CA, 95828",38.475426,-121.382704
"388",31417790,"2/1/2016 4:30:34 PM","","Open","Open311","Remote Device","Other","Other - 106830","8062 FLORIN RD, Sacramento, CA",95828,"8062 FLORIN RD, Sacramento, CA, 95828",38.495964,-121.410219
"389",31417856,"2/1/2016 5:45:40 PM","","Open","311 Service Request","Code - Housing","Emergency Housing Conditions","Emergency Housing Condition","4700 14TH AVE, Sacramento, CA",95820,"4700 14TH AVE, Sacramento, CA, 95820",38.539432,-121.451456
"390",31417949,"2/1/2016 10:16:34 PM","","Open","311 Service Request","Code - Zoning","Zoning - Private Property Complaints","Private Property Complaints","7748 WACHTEL WAY, Sacramento, CA",95662,"7748 WACHTEL WAY, Sacramento, CA, 95662",38.707424,-121.244208
"391",31417959,"2/1/2016 10:29:22 PM","","Open","311 Service Request","Code - Zoning","Zoning - Private Property Complaints","Private Property Complaints","8625 CALVINE RD, Sacramento, CA",95828,"8625 CALVINE RD, Sacramento, CA, 95828",38.452651,-121.384468
"392",31417989,"2/2/2016 7:51:58 AM","","Open","311 Service Request","Transportation","Graffiti Private Property","Graffiti Private Property","6620 MADISON AVE, Sacramento, CA",95608,"6620 MADISON AVE, Sacramento, CA, 95608",38.663416,-121.310165
"393",31418007,"2/2/2016 8:07:43 AM","","Open","311 Service Request","Code - Zoning","Zoning - Private Property Complaints","Private Property Complaints","7690 FLORENCIA LN, Sacramento, CA",95829,"7690 FLORENCIA LN, Sacramento, CA, 95829",38.478957,-121.362713
"394",31418013,"2/2/2016 8:10:00 AM","","Open","311 Service Request","Code - Zoning","Zoning - Private Property Complaints","Private Property Complaints","7700 FLORENCIA LN, Sacramento, CA",95829,"7700 FLORENCIA LN, Sacramento, CA, 95829",38.478624,-121.362711
"395",31418016,"2/2/2016 8:11:12 AM","","Open","311 Service Request","Code - Abandon Vehicles","Abandoned Vehicles","Abandoned Vehicle","4204 42ND AVE, Sacramento, CA",95824,"4204 42ND AVE, Sacramento, CA, 95824",38.515091,-121.458169
"396",31418021,"2/2/2016 8:16:43 AM","","Open","311 Service Request","Code - Zoning","Zoning - Private Property Complaints","Private Property Complaints","7692 FLORENCIA LN, Sacramento, CA",95829,"7692 FLORENCIA LN, Sacramento, CA, 95829",38.47889,-121.362713
"398",31418158,"2/2/2016 9:52:11 AM","","Open","311 Service Request","Environmental - Compliance","Hazardous Substances","Hazardous Substance","649 W ELKHORN BLVD, Sacramento, CA",95673,"649 W ELKHORN BLVD, Sacramento, CA, 95673",38.682049,-121.454109
"399",31418243,"2/2/2016 10:51:34 AM","","Open","311 Service Request","Code - Zoning","Private Property - Vehicles","Private Property - Vehicle","2020 DELMA WAY, Sacramento, CA",95825,"2020 DELMA WAY, Sacramento, CA, 95825",38.608347,-121.419462
"400",31418354,"2/2/2016 11:40:26 AM","","Open","311 Service Request","Code - Zoning","Zoning - Private Property Complaints","Private Property Complaints","2645 EL CAMINO AVE, Sacramento, CA",95821,"2645 EL CAMINO AVE, Sacramento, CA, 95821",38.610716,-121.401012
"401",31418411,"2/2/2016 12:09:58 PM","","Open","311 Service Request","Code - Housing","Sub-Standard Housing Complaints","Sub-Standard Housing Complaints","2838 SWEET WAY, Sacramento, CA",95821,"2838 SWEET WAY, Sacramento, CA, 95821",38.611911,-121.397406
"402",31418453,"2/2/2016 12:38:19 PM","","Open","311 Service Request","Transportation","Median Right of Way Landscape Complaints","Median Right of Way Landscape Complaints","8060 SUNSET AVE, Sacramento, CA",95628,"8060 SUNSET AVE, Sacramento, CA, 95628",38.652778,-121.265791
"403",31418509,"2/2/2016 1:18:28 PM","","Open","311 Service Request","Code - Zoning","Zoning - Private Property Complaints","Private Property Complaints","6633 MELROSE DR, Sacramento, CA",95660,"6633 MELROSE DR, Sacramento, CA, 95660",38.687283,-121.370939
"404",31418512,"2/2/2016 1:19:50 PM","","Open","311 Service Request","Transportation","Street Light Complaints","Street Light Complaints","2134 BUTANO DR, Sacramento, CA",95825,"2134 BUTANO DR, Sacramento, CA, 95825",38.605377,-121.386978
"405",31418521,"2/2/2016 1:23:20 PM","","Open","311 Service Request","Code - Zoning","Zoning - Private Property Complaints","Private Property Complaints","6552 GRAYLOCK LN, Sacramento, CA",95660,"6552 GRAYLOCK LN, Sacramento, CA, 95660",38.686189,-121.369729
"406",31418586,"2/2/2016 1:56:23 PM","","Open","311 Service Request","Code - Housing","Sub-Standard Housing Complaints","Sub-Standard Housing Complaints","5146 JACKSON ST, Sacramento, CA",95660,"5146 JACKSON ST, Sacramento, CA, 95660",38.66008,-121.373719
"407",31418603,"2/2/2016 2:08:50 PM","","Open","311 Service Request","Code - Zoning","Transient Complaints","Transient Complaints","7411 FAIR OAKS BLVD, Sacramento, CA",95608,"7411 FAIR OAKS BLVD, Sacramento, CA, 95608",38.635449,-121.328089
"408",31418719,"2/2/2016 3:20:56 PM","","Open","Open311","Remote Device","Street lighting","Street lighting - 107039","8325 DRESSAGE WAY, Sacramento, CA",95829,"8325 DRESSAGE WAY, Sacramento, CA, 95829",38.455336,-121.310763
"409",31418764,"2/2/2016 3:54:55 PM","","Open","311 Service Request","Code - Housing","Sub-Standard Housing Complaints","Sub-Standard Housing Complaints","8343 TRIAD CIR, Sacramento, CA",95828,"8343 TRIAD CIR, Sacramento, CA, 95828",38.45978,-121.397404
"410",31418794,"2/2/2016 4:09:48 PM","","Open","311 Service Request","Transportation","Pavement","Pavement","5024 WALNUT AVE, Sacramento, CA",95841,"5024 WALNUT AVE, Sacramento, CA, 95841",38.657349,-121.345921
"411",31418798,"2/2/2016 4:12:33 PM","","Open","311 Service Request","Code - Zoning","Zoning - Private Property Complaints","Private Property Complaints","5708 39TH ST, Sacramento, CA",95824,"5708 39TH ST, Sacramento, CA, 95824",38.523522,-121.462798
"412",31418822,"2/2/2016 4:35:26 PM","","Open","311 Service Request","Transportation","Other","Transportation - Other","7348 34TH ST, Sacramento, CA",95660,"7348 34TH ST, Sacramento, CA, 95660",38.700787,-121.387371
"413",31418843,"2/2/2016 4:50:55 PM","","Open","311 Service Request","Transportation","Pavement","Pavement","11701 HOLLENBECK WAY, Sacramento, CA",95670,"11701 HOLLENBECK WAY, Sacramento, CA, 95670",38.624775,-121.240625
"414",31418886,"2/2/2016 5:43:17 PM","","Open","311 Service Request","Code - Abandon Vehicles","Abandoned Vehicles","Abandoned Vehicle","4713 CRIMSON CT, Sacramento, CA",95842,"4713 CRIMSON CT, Sacramento, CA, 95842",38.696075,-121.355191
"415",31418893,"2/2/2016 5:51:20 PM","","Open","Open311","Remote Device","Abandoned vehicle","Abandoned Vehicle - 107078","6400 EVEREST WAY, Sacramento, CA",95842,"6400 EVEREST WAY, Sacramento, CA, 95842",38.68183,-121.344243
"416",31418897,"2/2/2016 5:56:18 PM","","Open","311 Service Request","Transportation","Encroachment Violation","Encroachment Violation","2440 PARK ESTATES DR, Sacramento, CA",95825,"2440 PARK ESTATES DR, Sacramento, CA, 95825",38.609089,-121.393558
"417",31419086,"2/3/2016 9:25:04 AM","","Open","311 Service Request","Code - Zoning","Zoning - Private Property Complaints","Private Property Complaints","4450 MINNESOTA AVE, Sacramento, CA",95628,"4450 MINNESOTA AVE, Sacramento, CA, 95628",38.643437,-121.268207
"418",31419155,"2/3/2016 10:11:38 AM","","Open","311 Service Request","Code - Zoning","Private Property - Vehicles","Private Property - Vehicle","9272 CHERRY AVE, Sacramento, CA",95662,"9272 CHERRY AVE, Sacramento, CA, 95662",38.710752,-121.209207
"419",31419157,"2/3/2016 10:12:13 AM","","Open","311 Service Request","Code - Zoning","Zoning - Private Property Complaints","Private Property Complaints","9272 CHERRY AVE, Sacramento, CA",95662,"9272 CHERRY AVE, Sacramento, CA, 95662",38.710752,-121.209207
"420",31419162,"2/3/2016 10:15:08 AM","","Open","311 Service Request","Code - Zoning","Business Area Not Zoned","Business Area Not Zoned","4513 SIERRA VIEW WAY, Sacramento, CA",95628,"4513 SIERRA VIEW WAY, Sacramento, CA, 95628",38.643437,-121.268207
"421",31419164,"2/3/2016 10:16:11 AM","","Open","311 Service Request","Transportation","Traffic Sign Complaints","Traffic Sign Complaints","4600 B PKWY, Sacramento, CA",95823,"4600 B PKWY, Sacramento, CA, 95823",38.492342,-121.452233
"422",31419177,"2/3/2016 10:22:17 AM","","Open","311 Service Request","Code - Zoning","Private Property - Animals","Private Property - Animal","7849 SUNRISE GREENS DR, Sacramento, CA",95828,"7849 SUNRISE GREENS DR, Sacramento, CA, 95828",38.472698,-121.397245
"423",31419265,"2/3/2016 11:16:01 AM","","Open","311 Service Request","Code - Zoning","Private Property - Vehicles","Private Property - Vehicle","3601 THORNHILL DR, Sacramento, CA",95826,"3601 THORNHILL DR, Sacramento, CA, 95826",38.547217,-121.36325
"424",31419280,"2/3/2016 11:27:14 AM","","Open","311 Service Request","Code - Zoning","Zoning - Private Property Complaints","Private Property Complaints","7404 PARDIS LN, Sacramento, CA",95828,"7404 PARDIS LN, Sacramento, CA, 95828",38.48856,-121.382345
"425",31419531,"2/3/2016 2:17:33 PM","","Open","311 Service Request","Code - Zoning","Zoning - Private Property Complaints","Private Property Complaints","7551 SUNSET AVE, Sacramento, CA",95628,"7551 SUNSET AVE, Sacramento, CA, 95628",38.652767,-121.287406
"426",31419670,"2/3/2016 3:52:35 PM","","Open","311 Service Request","Code - Housing","Emergency Housing Conditions","Emergency Housing Condition","4939 MARCONI AVE,Unit 17, Sacramento, CA",95608,"4939 MARCONI AVE,Unit 17, Sacramento, CA, 95608",38.617477,-121.349525
"427",31419698,"2/3/2016 4:11:23 PM","","Open","311 Service Request","Code - Abandon Vehicles","Abandoned Vehicles","Abandoned Vehicle","8046 LOMAND CT, Sacramento, CA",95828,"8046 LOMAND CT, Sacramento, CA, 95828",38.465471,-121.377145
"429",31419792,"2/3/2016 5:44:55 PM","","Open","311 Service Request","Code - Abandon Vehicles","Abandoned Vehicles","Abandoned Vehicle","7240 JERRY WAY, Sacramento, CA",95828,"7240 JERRY WAY, Sacramento, CA, 95828",38.493741,-121.40279
"430",31419798,"2/3/2016 5:53:40 PM","","Open","311 Service Request","Code - Housing","Sub-Standard Housing Complaints","Sub-Standard Housing Complaints","7701 BLACKHAWK DR, Sacramento, CA",95828,"7701 BLACKHAWK DR, Sacramento, CA, 95828",38.492801,-121.412798
"432",31419969,"2/4/2016 9:15:34 AM","","Open","311 Service Request","Code - Housing","Emergency Housing Conditions","Emergency Housing Condition","5744 39TH ST, Sacramento, CA",95824,"5744 39TH ST, Sacramento, CA, 95824",38.522654,-121.462803
"433",31420179,"2/4/2016 12:06:35 PM","","Open","311 Service Request","Code - Housing","Sub-Standard Housing Complaints","Sub-Standard Housing Complaints","4735 MARCONI AVE,Unit 22, Sacramento, CA",95608,"4735 MARCONI AVE,Unit 22, Sacramento, CA, 95608",38.617532,-121.354389
"434",31420180,"2/4/2016 12:07:43 PM","","Open","311 Service Request","Code - Abandon Vehicles","Abandoned Vehicles","Abandoned Vehicle","7135 SUNSET AVE, Sacramento, CA",95628,"7135 SUNSET AVE, Sacramento, CA, 95628",38.651869,-121.29947
"435",31420199,"2/4/2016 12:21:18 PM","","Open","Open311","Remote Device","Other","Other - 107355","5120 MANZANITA AVE, Sacramento, CA",95608,"5120 MANZANITA AVE, Sacramento, CA, 95608",38.659385,-121.32737
"436",31420285,"2/4/2016 1:28:42 PM","","Open","311 Service Request","Transportation","Pavement","Pavement","4820 MADISON AVE, Sacramento, CA",95841,"4820 MADISON AVE, Sacramento, CA, 95841",38.660984,-121.352693
"437",31420371,"2/4/2016 2:33:58 PM","","Open","311 Service Request","Code - Zoning","Private Property - Vehicles","Private Property - Vehicle","7225 10TH ST, Sacramento, CA",95673,"7225 10TH ST, Sacramento, CA, 95673",38.698733,-121.443056
